,index,capacity,eightd_has_key_dispenser,electric_bike_surcharge_waiver,external_id,has_kiosk,lat,lon,name,region_id,rental_methods,short_name,station_id
0,0,39,False,False,a3a36d9e-a135-11e9-9cda-0a87ae2ba916,True,41.87651122881695,-87.62054800987242,Buckingham Fountain,,"['CREDITCARD', 'TRANSITCARD', 'KEY']",15541,2
1,1,55,False,False,a3a37378-a135-11e9-9cda-0a87ae2ba916,True,41.86722595682,-87.6153553902,Shedd Aquarium,,"['CREDITCARD', 'TRANSITCARD', 'KEY']",15544,3
2,2,23,False,False,a3a378ca-a135-11e9-9cda-0a87ae2ba916,True,41.856268,-87.613348,Burnham Harbor,,"['CREDITCARD', 'TRANSITCARD', 'KEY']",15545,4
3,3,23,False,False,a3a37e26-a135-11e9-9cda-0a87ae2ba916,True,41.874053,-87.627716,State St & Harrison St,,"['CREDITCARD', 'TRANSITCARD', 'KEY']",SL-007,5
4,4,39,False,False,a3a38363-a135-11e9-9cda-0a87ae2ba916,True,41.886976,-87.612813,Dusable Harbor,,"['CREDITCARD', 'TRANSITCARD', 'KEY']",KA1503000064,6
5,5,19,False,False,a3a3888b-a135-11e9-9cda-0a87ae2ba916,True,41.88634906269,-87.6175165471,Field Blvd & South Water St,,"['CREDITCARD', 'TRANSITCARD', 'KEY']",15534,7
6,6,15,False,False,a3a39301-a135-11e9-9cda-0a87ae2ba916,True,41.82879201994,-87.6806044594,Leavitt St & Archer Ave,,"['CREDITCARD', 'TRANSITCARD', 'KEY']",KA1503000068,9
7,7,11,False,False,a3a3983e-a135-11e9-9cda-0a87ae2ba916,True,41.76663823695,-87.5764501141,Jeffery Blvd & 71st St,,"['CREDITCARD', 'TRANSITCARD', 'KEY']",KA1503000018,11
8,8,15,False,False,a3a39d55-a135-11e9-9cda-0a87ae2ba916,True,41.7664094567,-87.5656875719,South Shore Dr & 71st St,,"['CREDITCARD', 'TRANSITCARD', 'KEY']",KA1503000002,12
9,9,35,False,False,a3a3a282-a135-11e9-9cda-0a87ae2ba916,True,41.932418,-87.652705,Wilton Ave & Diversey Pkwy,,"['CREDITCARD', 'TRANSITCARD', 'KEY']",TA1306000014,13
10,10,15,False,False,a3a3a7b4-a135-11e9-9cda-0a87ae2ba916,True,41.858086,-87.651073,Morgan St & 18th St,,"['CREDITCARD', 'TRANSITCARD', 'KEY']",13163,14
11,11,15,False,False,a3a3ace6-a135-11e9-9cda-0a87ae2ba916,True,41.858166,-87.656495,Racine Ave & 18th St,,"['CREDITCARD', 'TRANSITCARD', 'KEY']",13164,15
12,12,15,False,False,a3a3b202-a135-11e9-9cda-0a87ae2ba916,True,41.910337,-87.670072,Paulina Ave & North Ave,,"['CREDITCARD', 'TRANSITCARD', 'KEY']",TA1305000037,16
13,13,23,False,False,a3a3b731-a135-11e9-9cda-0a87ae2ba916,True,41.903119,-87.673935,Honore St & Division St,,"['CREDITCARD', 'TRANSITCARD', 'KEY']",TA1305000034,17
14,14,19,False,False,a3a3bc53-a135-11e9-9cda-0a87ae2ba916,True,41.883132,-87.637321,Wacker Dr & Washington St,,"['CREDITCARD', 'TRANSITCARD', 'KEY']",KA1503000072,18
15,15,15,False,False,a3a3c174-a135-11e9-9cda-0a87ae2ba916,True,41.868968,-87.659141,Throop (Loomis) St & Taylor St,,"['CREDITCARD', 'TRANSITCARD', 'KEY']",13139,19
16,16,15,False,False,a3a3c696-a135-11e9-9cda-0a87ae2ba916,True,41.910522,-87.653106,Sheffield Ave & Kingsbury St,,"['CREDITCARD', 'TRANSITCARD', 'KEY']",13154,20
17,17,23,False,False,a3a3cbac-a135-11e9-9cda-0a87ae2ba916,True,41.87772613,-87.65478743,Aberdeen St & Jackson Blvd,,"['CREDITCARD', 'TRANSITCARD', 'KEY']",13157,21
18,18,15,False,False,a3a3d1b8-a135-11e9-9cda-0a87ae2ba916,True,41.8694821,-87.6554864,May St & Taylor St,,"['CREDITCARD', 'TRANSITCARD', 'KEY']",13160,22
19,19,15,False,False,a3a3d6f0-a135-11e9-9cda-0a87ae2ba916,True,41.902924,-87.637715,Orleans St & Elm St,,"['CREDITCARD', 'TRANSITCARD', 'KEY']",TA1306000006,23
20,20,15,False,False,a3a3dc37-a135-11e9-9cda-0a87ae2ba916,True,41.8925,-87.6207,Fairbanks Ct & Grand Ave,,"['CREDITCARD', 'TRANSITCARD', 'KEY']",TA1305000003,24
21,21,23,False,False,a3a3e158-a135-11e9-9cda-0a87ae2ba916,True,41.89766,-87.62351,Michigan Ave & Pearson St,,"['CREDITCARD', 'TRANSITCARD', 'KEY']",13034,25
22,22,31,False,False,a3a3e67b-a135-11e9-9cda-0a87ae2ba916,True,41.890359,-87.617532,McClurg Ct & Illinois St,,"['CREDITCARD', 'TRANSITCARD', 'KEY']",TA1306000013,26
23,23,19,False,False,a3a3eb9a-a135-11e9-9cda-0a87ae2ba916,True,41.91021,-87.6435,Larrabee St & North Ave,,"['CREDITCARD', 'TRANSITCARD', 'KEY']",TA1306000008,27
24,24,15,False,False,a3a3f0c6-a135-11e9-9cda-0a87ae2ba916,True,41.91468,-87.64332,Larrabee St & Menomonee St,,"['CREDITCARD', 'TRANSITCARD', 'KEY']",TA1306000007,28
25,25,15,False,False,a3a3f5e9-a135-11e9-9cda-0a87ae2ba916,True,41.90068,-87.6626,Noble St & Milwaukee Ave,,"['CREDITCARD', 'TRANSITCARD', 'KEY']",13290,29
26,26,15,False,False,a3a3fb5d-a135-11e9-9cda-0a87ae2ba916,True,41.899643,-87.6677,Ashland Ave & Augusta Blvd,,"['CREDITCARD', 'TRANSITCARD', 'KEY']",13248,30
27,27,23,False,False,a3a40088-a135-11e9-9cda-0a87ae2ba916,True,41.896746973093805,-87.63566762208939,Franklin St & Chicago Ave,,"['CREDITCARD', 'TRANSITCARD', 'KEY']",13017,31
28,28,19,False,False,a3a405a1-a135-11e9-9cda-0a87ae2ba916,True,41.87464,-87.65703,Racine Ave & Congress Pkwy,,"['CREDITCARD', 'TRANSITCARD', 'KEY']",TA1306000025,32
29,29,27,False,False,a3a40ad8-a135-11e9-9cda-0a87ae2ba916,True,41.877181,-87.627844,State St & Van Buren St,,"['CREDITCARD', 'TRANSITCARD', 'KEY']",TA1305000035,33
30,30,15,False,False,a3a41004-a135-11e9-9cda-0a87ae2ba916,True,41.9267559875,-87.6344287848,Cannon Dr & Fullerton Ave,,"['CREDITCARD', 'TRANSITCARD', 'KEY']",13124,34
31,31,47,False,False,a3a41526-a135-11e9-9cda-0a87ae2ba916,True,41.892278,-87.612043,Streeter Dr & Grand Ave,,"['CREDITCARD', 'TRANSITCARD', 'KEY']",13022,35
32,32,39,False,False,a3a41af5-a135-11e9-9cda-0a87ae2ba916,True,41.8777079559,-87.6353211408,Franklin St & Jackson Blvd,,"['CREDITCARD', 'TRANSITCARD', 'KEY']",TA1305000025,36
33,33,19,False,False,a3a4203a-a135-11e9-9cda-0a87ae2ba916,True,41.8793563587,-87.6297910363,Dearborn St & Adams St,,"['CREDITCARD', 'TRANSITCARD', 'KEY']",TA1305000005,37
34,34,27,False,False,a3a42574-a135-11e9-9cda-0a87ae2ba916,True,41.88602082773,-87.6308760584,Clark St & Lake St,,"['CREDITCARD', 'TRANSITCARD', 'KEY']",KA1503000012,38
35,35,23,False,False,a3a42a93-a135-11e9-9cda-0a87ae2ba916,True,41.87947235235,-87.6256886059,Wabash Ave & Adams St,,"['CREDITCARD', 'TRANSITCARD', 'KEY']",KA1503000015,39
36,36,15,False,False,a3a42fa7-a135-11e9-9cda-0a87ae2ba916,True,41.87934437346,-87.6319852213,LaSalle St & Adams St,,"['CREDITCARD', 'TRANSITCARD', 'KEY']",KA1503000034,40
37,37,19,False,False,a3a434ce-a135-11e9-9cda-0a87ae2ba916,True,41.87207763285,-87.6295437729,Federal St & Polk St,,"['CREDITCARD', 'TRANSITCARD', 'KEY']",SL-008,41
38,38,11,False,False,a3a43a25-a135-11e9-9cda-0a87ae2ba916,True,41.852619,-87.626488,Wabash Ave & Cermak Rd,,"['CREDITCARD', 'TRANSITCARD', 'KEY']",TA1305000001,42
39,39,43,False,False,a3a43f48-a135-11e9-9cda-0a87ae2ba916,True,41.8839840647265,-87.6246839761734,Michigan Ave & Washington St,,"['CREDITCARD', 'TRANSITCARD', 'KEY']",13001,43
40,40,27,False,False,a3a44476-a135-11e9-9cda-0a87ae2ba916,True,41.8847302006,-87.6277335692,State St & Randolph St,,"['CREDITCARD', 'TRANSITCARD', 'KEY']",TA1305000029,44
41,41,15,False,False,a3a4499f-a135-11e9-9cda-0a87ae2ba916,True,41.876243,-87.624426,Michigan Ave & Ida B Wells Dr,,"['CREDITCARD', 'TRANSITCARD', 'KEY']",TA1305000010,45
42,42,19,False,False,a3a44ec7-a135-11e9-9cda-0a87ae2ba916,True,41.89993001,-87.63443007,Wells St & Walton St,,"['CREDITCARD', 'TRANSITCARD', 'KEY']",TA1306000011,46
43,43,31,False,False,a3a453fa-a135-11e9-9cda-0a87ae2ba916,True,41.889187,-87.627754,State St & Kinzie St,,"['CREDITCARD', 'TRANSITCARD', 'KEY']",13050,47
44,44,43,False,False,a3a4591a-a135-11e9-9cda-0a87ae2ba916,True,41.897764,-87.642884,Larrabee St & Kingsbury St,,"['CREDITCARD', 'TRANSITCARD', 'KEY']",TA1306000009,48
45,45,39,False,False,a3a45e3b-a135-11e9-9cda-0a87ae2ba916,True,41.881319815,-87.6295209193,Dearborn St & Monroe St,,"['CREDITCARD', 'TRANSITCARD', 'KEY']",TA1305000006,49
46,46,35,False,False,a3a46361-a135-11e9-9cda-0a87ae2ba916,True,41.8759326655,-87.6305845355,Clark St & Ida B Wells Dr,,"['CREDITCARD', 'TRANSITCARD', 'KEY']",TA1305000009,50
47,47,39,False,False,a3a46896-a135-11e9-9cda-0a87ae2ba916,True,41.884576228,-87.63188991,Clark St & Randolph St,,"['CREDITCARD', 'TRANSITCARD', 'KEY']",TA1305000030,51
48,48,35,False,False,a3a46e71-a135-11e9-9cda-0a87ae2ba916,True,41.886024,-87.624117,Michigan Ave & Lake St,,"['CREDITCARD', 'TRANSITCARD', 'KEY']",TA1305000011,52
49,49,27,False,False,a3a4739d-a135-11e9-9cda-0a87ae2ba916,True,41.894722,-87.634362,Wells St & Huron St,,"['CREDITCARD', 'TRANSITCARD', 'KEY']",TA1306000012,53
50,50,19,False,False,a3a478c9-a135-11e9-9cda-0a87ae2ba916,True,41.896362458,-87.6540612729,Ogden Ave & Chicago Ave,,"['CREDITCARD', 'TRANSITCARD', 'KEY']",TA1305000020,54
51,51,23,False,False,a3a47dde-a135-11e9-9cda-0a87ae2ba916,True,41.867324,-87.648625,Halsted St & Roosevelt Rd,,"['CREDITCARD', 'TRANSITCARD', 'KEY']",TA1305000017,55
52,52,27,False,False,a3a482fb-a135-11e9-9cda-0a87ae2ba916,True,41.888716036,-87.6444478533,Desplaines St & Kinzie St,,"['CREDITCARD', 'TRANSITCARD', 'KEY']",TA1306000003,56
53,53,15,False,False,a3a4881d-a135-11e9-9cda-0a87ae2ba916,True,41.8671177825,-87.6410879593,Clinton St & Roosevelt Rd,,"['CREDITCARD', 'TRANSITCARD', 'KEY']",WL-008,57
54,54,23,False,False,a3a48d5c-a135-11e9-9cda-0a87ae2ba916,True,41.916017,-87.668879,Marshfield Ave & Cortland St,,"['CREDITCARD', 'TRANSITCARD', 'KEY']",TA1305000039,58
55,55,23,False,False,a3a49288-a135-11e9-9cda-0a87ae2ba916,True,41.867227,-87.625961,Wabash Ave & Roosevelt Rd,,"['CREDITCARD', 'TRANSITCARD', 'KEY']",TA1305000002,59
56,56,19,False,False,a3a497b6-a135-11e9-9cda-0a87ae2ba916,True,41.9105780349,-87.6494219288,Dayton St & North Ave,,"['CREDITCARD', 'TRANSITCARD', 'KEY']",13058,60
57,57,19,False,False,a3a49cd7-a135-11e9-9cda-0a87ae2ba916,True,41.907655,-87.672552,Wood St & Milwaukee Ave,,"['CREDITCARD', 'TRANSITCARD', 'KEY']",13221,61
58,58,27,False,False,a3a4a202-a135-11e9-9cda-0a87ae2ba916,True,41.8513751729,-87.6188346489,McCormick Place,,"['CREDITCARD', 'TRANSITCARD', 'KEY']",TA1305000004,62
59,59,23,False,False,a3a4a71e-a135-11e9-9cda-0a87ae2ba916,True,41.885637,-87.641823,Clinton St & Lake St,,"['CREDITCARD', 'TRANSITCARD', 'KEY']",13021,66
60,60,27,False,False,a3a4ac3f-a135-11e9-9cda-0a87ae2ba916,True,41.9256018819,-87.6537080423,Sheffield Ave & Fullerton Ave,,"['CREDITCARD', 'TRANSITCARD', 'KEY']",TA1306000016,67
61,61,23,False,False,a3a4b164-a135-11e9-9cda-0a87ae2ba916,True,41.875885,-87.640795,Clinton St & Tilden St,,"['CREDITCARD', 'TRANSITCARD', 'KEY']",13037,68
62,62,23,False,False,a3a4b693-a135-11e9-9cda-0a87ae2ba916,True,41.9093960065,-87.6776919292,Damen Ave & Pierce Ave,,"['CREDITCARD', 'TRANSITCARD', 'KEY']",TA1305000041,69
63,63,23,False,False,a3a4bbba-a135-11e9-9cda-0a87ae2ba916,True,41.8854833079,-87.6523048564,Morgan St & Lake St,,"['CREDITCARD', 'TRANSITCARD', 'KEY']",TA1306000015,71
64,64,39,False,False,a3a4c0df-a135-11e9-9cda-0a87ae2ba916,True,41.860384,-87.625813,Wabash Ave & 16th St,,"['CREDITCARD', 'TRANSITCARD', 'KEY']",SL-012,72
65,65,19,False,False,a3a4c618-a135-11e9-9cda-0a87ae2ba916,True,41.880422,-87.642746,Jefferson St & Monroe St,,"['CREDITCARD', 'TRANSITCARD', 'KEY']",WL-011,73
66,66,23,False,False,a3a4cb42-a135-11e9-9cda-0a87ae2ba916,True,41.89380805624359,-87.64169722795485,Kingsbury St & Erie St,,"['CREDITCARD', 'TRANSITCARD', 'KEY']",13265,74
67,67,47,False,False,a3a4d069-a135-11e9-9cda-0a87ae2ba916,True,41.877245,-87.639366,Canal St & Jackson Blvd,,"['CREDITCARD', 'TRANSITCARD', 'KEY']",13138,75
68,68,39,False,False,a3a4d588-a135-11e9-9cda-0a87ae2ba916,True,41.880958,-87.616743,Lake Shore Dr & Monroe St,,"['CREDITCARD', 'TRANSITCARD', 'KEY']",13300,76
69,69,31,False,False,a3a4daa1-a135-11e9-9cda-0a87ae2ba916,True,41.882242,-87.641066,Clinton St & Madison St,,"['CREDITCARD', 'TRANSITCARD', 'KEY']",TA1305000032,77
70,70,19,False,False,a3a4e4e3-a135-11e9-9cda-0a87ae2ba916,True,41.880419,-87.655519,Aberdeen St & Monroe St,,"['CREDITCARD', 'TRANSITCARD', 'KEY']",13156,80
71,71,39,False,False,a3a4ea00-a135-11e9-9cda-0a87ae2ba916,True,41.884241,-87.629634,Daley Center Plaza,,"['CREDITCARD', 'TRANSITCARD', 'KEY']",TA1306000010,81
72,72,19,False,False,a3a4ef26-a135-11e9-9cda-0a87ae2ba916,True,41.891578,-87.648384,Milwaukee Ave & Grand Ave,,"['CREDITCARD', 'TRANSITCARD', 'KEY']",13033,84
73,73,23,False,False,a3a4f46b-a135-11e9-9cda-0a87ae2ba916,True,41.90096039,-87.62377664,Michigan Ave & Oak St,,"['CREDITCARD', 'TRANSITCARD', 'KEY']",13042,85
74,74,19,False,False,a3a4f993-a135-11e9-9cda-0a87ae2ba916,True,41.89637337,-87.66098386,Eckhart Park,,"['CREDITCARD', 'TRANSITCARD', 'KEY']",13289,86
75,75,19,False,False,a3a4fec3-a135-11e9-9cda-0a87ae2ba916,True,41.92556258,-87.65840426,Racine Ave & Fullerton Ave,,"['CREDITCARD', 'TRANSITCARD', 'KEY']",TA1306000026,87
76,76,19,False,False,a3a503e5-a135-11e9-9cda-0a87ae2ba916,True,41.884069,-87.656853,Racine Ave & Randolph St,,"['CREDITCARD', 'TRANSITCARD', 'KEY']",13155,88
77,77,31,False,False,a3a50991-a135-11e9-9cda-0a87ae2ba916,True,41.8750236280333,-87.6330940425396,Financial Pl & Ida B Wells Dr,,"['CREDITCARD', 'TRANSITCARD', 'KEY']",SL-010,89
78,78,47,False,False,a3a50ec8-a135-11e9-9cda-0a87ae2ba916,True,41.8810317,-87.62408432,Millennium Park,,"['CREDITCARD', 'TRANSITCARD', 'KEY']",13008,90
79,79,31,False,False,a3a513e9-a135-11e9-9cda-0a87ae2ba916,True,41.88338,-87.64117,Clinton St & Washington Blvd,,"['CREDITCARD', 'TRANSITCARD', 'KEY']",WL-012,91
80,80,19,False,False,a3a51934-a135-11e9-9cda-0a87ae2ba916,True,41.894556,-87.653449,Carpenter St & Huron St,,"['CREDITCARD', 'TRANSITCARD', 'KEY']",13196,92
81,81,15,False,False,a3a51e6e-a135-11e9-9cda-0a87ae2ba916,True,41.913688,-87.652855,Sheffield Ave & Willow St,,"['CREDITCARD', 'TRANSITCARD', 'KEY']",TA1306000032,93
82,82,31,False,False,a3a523a6-a135-11e9-9cda-0a87ae2ba916,True,41.918306,-87.636282,Clark St & Armitage Ave,,"['CREDITCARD', 'TRANSITCARD', 'KEY']",13146,94
83,83,11,False,False,a3a528d0-a135-11e9-9cda-0a87ae2ba916,True,41.778881,-87.586647,Stony Island Ave & 64th St,,"['CREDITCARD', 'TRANSITCARD', 'KEY']",KA1503000021,95
84,84,23,False,False,a3a52df5-a135-11e9-9cda-0a87ae2ba916,True,41.88461618962,-87.6445705849,Desplaines St & Randolph St,,"['CREDITCARD', 'TRANSITCARD', 'KEY']",15535,96
85,85,55,False,False,a3a53324-a135-11e9-9cda-0a87ae2ba916,True,41.865312,-87.617867,Field Museum,,"['CREDITCARD', 'TRANSITCARD', 'KEY']",13029,97
86,86,15,False,False,a3a53843-a135-11e9-9cda-0a87ae2ba916,True,41.882664,-87.63253,LaSalle St & Washington St,,"['CREDITCARD', 'TRANSITCARD', 'KEY']",13006,98
87,87,19,False,False,a3a53d70-a135-11e9-9cda-0a87ae2ba916,True,41.89257,-87.614492,Lake Shore Dr & Ohio St,,"['CREDITCARD', 'TRANSITCARD', 'KEY']",TA1306000029,99
88,88,35,False,False,a3a5428e-a135-11e9-9cda-0a87ae2ba916,True,41.888243,-87.63639,Orleans St & Merchandise Mart Plaza,,"['CREDITCARD', 'TRANSITCARD', 'KEY']",TA1305000022,100
89,89,15,False,False,a3a547b8-a135-11e9-9cda-0a87ae2ba916,True,41.78101637196,-87.5761197602,63rd St Beach,,"['CREDITCARD', 'TRANSITCARD', 'KEY']",15491,101
90,90,11,False,False,a3a54cdb-a135-11e9-9cda-0a87ae2ba916,True,41.77345849948,-87.5853397391,Stony Island Ave & 67th St,,"['CREDITCARD', 'TRANSITCARD', 'KEY']",KA1503000023,102
91,91,15,False,False,a3a555e8-a135-11e9-9cda-0a87ae2ba916,True,41.87146651779,-87.6409491327,Clinton St & Polk St,,"['CREDITCARD', 'TRANSITCARD', 'KEY']",15542,103
92,92,27,False,False,a3a55b3e-a135-11e9-9cda-0a87ae2ba916,True,41.897448,-87.628722,State St & Pearson St,,"['CREDITCARD', 'TRANSITCARD', 'KEY']",TA1307000061,106
93,93,27,False,False,a3a56075-a135-11e9-9cda-0a87ae2ba916,True,41.878287,-87.643909,Desplaines St & Jackson Blvd,,"['CREDITCARD', 'TRANSITCARD', 'KEY']",15539,107
94,94,19,False,False,a3a565b1-a135-11e9-9cda-0a87ae2ba916,True,41.87184,-87.64664,Halsted St & Polk St,,"['CREDITCARD', 'TRANSITCARD', 'KEY']",TA1307000121,108
95,95,19,False,False,a3a56ae5-a135-11e9-9cda-0a87ae2ba916,True,41.874754,-87.649807,900 W Harrison St,,"['CREDITCARD', 'TRANSITCARD', 'KEY']",13028,109
96,96,27,False,False,a3a5700b-a135-11e9-9cda-0a87ae2ba916,True,41.893992,-87.629318,Dearborn St & Erie St,,"['CREDITCARD', 'TRANSITCARD', 'KEY']",13045,110
97,97,27,False,False,a3a57527-a135-11e9-9cda-0a87ae2ba916,True,41.894666,-87.638437,Sedgwick St & Huron St,,"['CREDITCARD', 'TRANSITCARD', 'KEY']",TA1307000062,111
98,98,15,False,False,a3a57a52-a135-11e9-9cda-0a87ae2ba916,True,41.883668,-87.64867,Green St & Randolph St,,"['CREDITCARD', 'TRANSITCARD', 'KEY']",13053,112
99,99,15,False,False,a3a57f6b-a135-11e9-9cda-0a87ae2ba916,True,41.91844,-87.65222,Bissell St & Armitage Ave,,"['CREDITCARD', 'TRANSITCARD', 'KEY']",13059,113
100,100,27,False,False,a3a58495-a135-11e9-9cda-0a87ae2ba916,True,41.949399,-87.654529,Sheffield Ave & Waveland Ave,,"['CREDITCARD', 'TRANSITCARD', 'KEY']",TA1307000126,114
101,101,23,False,False,a3a589b9-a135-11e9-9cda-0a87ae2ba916,True,41.936266,-87.652662,Sheffield Ave & Wellington Ave,,"['CREDITCARD', 'TRANSITCARD', 'KEY']",TA1307000052,115
102,102,15,False,False,a3a58ee0-a135-11e9-9cda-0a87ae2ba916,True,41.91552,-87.687022,Western Ave & Winnebago Ave,,"['CREDITCARD', 'TRANSITCARD', 'KEY']",13068,116
103,103,27,False,False,a3a593fc-a135-11e9-9cda-0a87ae2ba916,True,41.94018,-87.65304,Wilton Ave & Belmont Ave,,"['CREDITCARD', 'TRANSITCARD', 'KEY']",TA1307000134,117
104,104,19,False,False,a3a59915-a135-11e9-9cda-0a87ae2ba916,True,41.911386,-87.638677,Sedgwick St & North Ave,,"['CREDITCARD', 'TRANSITCARD', 'KEY']",TA1307000038,118
105,105,19,False,False,a3a59ec3-a135-11e9-9cda-0a87ae2ba916,True,41.88592,-87.66717,Ashland Ave & Lake St,,"['CREDITCARD', 'TRANSITCARD', 'KEY']",13073,119
106,106,19,False,False,a3a5a48b-a135-11e9-9cda-0a87ae2ba916,True,41.853005,-87.630578,Wentworth Ave & Cermak Rd (Temp),,"['CREDITCARD', 'TRANSITCARD', 'KEY']",13075,120
107,107,19,False,False,a3a5a9d0-a135-11e9-9cda-0a87ae2ba916,True,41.802562,-87.590368,Blackstone Ave & Hyde Park Blvd,,"['CREDITCARD', 'TRANSITCARD', 'KEY']",13398,121
108,108,15,False,False,a3a5af44-a135-11e9-9cda-0a87ae2ba916,True,41.87501,-87.67328,Ogden Ave & Congress Pkwy,,"['CREDITCARD', 'TRANSITCARD', 'KEY']",13081,122
109,109,15,False,False,a3a5b496-a135-11e9-9cda-0a87ae2ba916,True,41.922695,-87.697153,California Ave & Milwaukee Ave,,"['CREDITCARD', 'TRANSITCARD', 'KEY']",13084,123
110,110,15,False,False,a3a5b9d3-a135-11e9-9cda-0a87ae2ba916,True,41.855048,-87.675726,Damen Ave & Cullerton St,,"['CREDITCARD', 'TRANSITCARD', 'KEY']",13089,124
111,111,23,False,False,a3a5bf01-a135-11e9-9cda-0a87ae2ba916,True,41.890173,-87.626185,Rush St & Hubbard St,,"['CREDITCARD', 'TRANSITCARD', 'KEY']",KA1503000044,125
112,112,15,False,False,a3a5c440-a135-11e9-9cda-0a87ae2ba916,True,41.911974,-87.631942,Clark St & North Ave,,"['CREDITCARD', 'TRANSITCARD', 'KEY']",13128,126
113,113,15,False,False,a3a5c96f-a135-11e9-9cda-0a87ae2ba916,True,41.925905,-87.64926,Lincoln Ave & Fullerton Ave,,"['CREDITCARD', 'TRANSITCARD', 'KEY']",TA1309000058,127
114,114,19,False,False,a3a5ce97-a135-11e9-9cda-0a87ae2ba916,True,41.895769,-87.67722,Damen Ave & Chicago Ave,,"['CREDITCARD', 'TRANSITCARD', 'KEY']",13132,128
115,115,15,False,False,a3a5d3bb-a135-11e9-9cda-0a87ae2ba916,True,41.857556,-87.661535,Blue Island Ave & 18th St,,"['CREDITCARD', 'TRANSITCARD', 'KEY']",13135,129
116,116,19,False,False,a3a5d8db-a135-11e9-9cda-0a87ae2ba916,True,41.903266,-87.678435,Damen Ave & Division St,,"['CREDITCARD', 'TRANSITCARD', 'KEY']",13136,130
117,117,15,False,False,a3a5de24-a135-11e9-9cda-0a87ae2ba916,True,41.939365,-87.668385,Lincoln Ave & Belmont Ave,,"['CREDITCARD', 'TRANSITCARD', 'KEY']",TA1309000042,131
118,118,15,False,False,a3a5e353-a135-11e9-9cda-0a87ae2ba916,True,41.85008369347577,-87.6321405172348,Wentworth Ave & 24th St (Temp),,"['CREDITCARD', 'TRANSITCARD', 'KEY']",TA1308000026,132
119,119,31,False,False,a3a5eb69-a135-11e9-9cda-0a87ae2ba916,True,41.88917683258,-87.6385057718,Kingsbury St & Kinzie St,,"['CREDITCARD', 'TRANSITCARD', 'KEY']",KA1503000043,133
120,120,23,False,False,a3a5f0b8-a135-11e9-9cda-0a87ae2ba916,True,41.8776415962753,-87.64961779117584,Peoria St & Jackson Blvd,,"['CREDITCARD', 'TRANSITCARD', 'KEY']",13158,134
121,121,11,False,False,a3a5f5e6-a135-11e9-9cda-0a87ae2ba916,True,41.85378,-87.64665,Halsted St & 21st St,,"['CREDITCARD', 'TRANSITCARD', 'KEY']",13162,135
122,122,15,False,False,a3a5fb0d-a135-11e9-9cda-0a87ae2ba916,True,41.865054,-87.656959,Racine Ave & 13th St,,"['CREDITCARD', 'TRANSITCARD', 'KEY']",13165,136
123,123,15,False,False,a3a6002c-a135-11e9-9cda-0a87ae2ba916,True,41.862378,-87.651062,Morgan Ave & 14th Pl,,"['CREDITCARD', 'TRANSITCARD', 'KEY']",TA1306000002,137
124,124,15,False,False,a3a6054c-a135-11e9-9cda-0a87ae2ba916,True,41.904613,-87.640552,Clybourn Ave & Division St,,"['CREDITCARD', 'TRANSITCARD', 'KEY']",TA1307000115,138
125,125,19,False,False,a3a60a65-a135-11e9-9cda-0a87ae2ba916,True,41.898969,-87.629912,Dearborn Pkwy & Delaware Pl,,"['CREDITCARD', 'TRANSITCARD', 'KEY']",TA1307000128,140
126,126,23,False,False,a3a60f7e-a135-11e9-9cda-0a87ae2ba916,True,41.915689,-87.6346,Clark St & Lincoln Ave,,"['CREDITCARD', 'TRANSITCARD', 'KEY']",13179,141
127,127,31,False,False,a3a614ad-a135-11e9-9cda-0a87ae2ba916,True,41.894503,-87.617854,McClurg Ct & Erie St,,"['CREDITCARD', 'TRANSITCARD', 'KEY']",KA1503000041,142
128,128,15,False,False,a3a61a0b-a135-11e9-9cda-0a87ae2ba916,True,41.922167,-87.638888,Sedgwick St & Webster Ave,,"['CREDITCARD', 'TRANSITCARD', 'KEY']",13191,143
129,129,19,False,False,a3a62025-a135-11e9-9cda-0a87ae2ba916,True,41.921822,-87.64414,Larrabee St & Webster Ave,,"['CREDITCARD', 'TRANSITCARD', 'KEY']",13193,144
130,130,19,False,False,a3a62566-a135-11e9-9cda-0a87ae2ba916,True,41.8985866514,-87.6219152258,Mies van der Rohe Way & Chestnut St,,"['CREDITCARD', 'TRANSITCARD', 'KEY']",15529,145
131,131,19,False,False,a3a62aad-a135-11e9-9cda-0a87ae2ba916,True,41.877945,-87.662007,Loomis St & Jackson Blvd,,"['CREDITCARD', 'TRANSITCARD', 'KEY']",13206,146
132,132,15,False,False,a3a62fc9-a135-11e9-9cda-0a87ae2ba916,True,41.845687,-87.622481,Indiana Ave & 26th St,,"['CREDITCARD', 'TRANSITCARD', 'KEY']",TA1307000005,147
133,133,15,False,False,a3a634dd-a135-11e9-9cda-0a87ae2ba916,True,41.834734,-87.625813,State St & 33rd St,,"['CREDITCARD', 'TRANSITCARD', 'KEY']",13216,148
134,134,11,False,False,a3a639f5-a135-11e9-9cda-0a87ae2ba916,True,41.8349,-87.61793,Calumet Ave & 33rd St,,"['CREDITCARD', 'TRANSITCARD', 'KEY']",13217,149
135,135,27,False,False,a3a640d1-a135-11e9-9cda-0a87ae2ba916,True,41.838556,-87.608218,Fort Dearborn Dr & 31st St,,"['CREDITCARD', 'TRANSITCARD', 'KEY']",TA1307000048,150
136,136,15,False,False,a3a64639-a135-11e9-9cda-0a87ae2ba916,True,41.932225,-87.658617,Lincoln Ave & Diversey Pkwy,,"['CREDITCARD', 'TRANSITCARD', 'KEY']",TA1307000064,152
137,137,19,False,False,a3a6c38e-a135-11e9-9cda-0a87ae2ba916,True,41.935733,-87.663576,Southport Ave & Wellington Ave,,"['CREDITCARD', 'TRANSITCARD', 'KEY']",TA1307000006,153
138,138,15,False,False,a3a6c910-a135-11e9-9cda-0a87ae2ba916,True,41.93949,-87.66378,Southport Ave & Belmont Ave,,"['CREDITCARD', 'TRANSITCARD', 'KEY']",13229,154
139,139,15,False,False,a3a6ce53-a135-11e9-9cda-0a87ae2ba916,True,41.9364968219,-87.6475386582,Clark St & Wellington Ave,,"['CREDITCARD', 'TRANSITCARD', 'KEY']",TA1307000136,156
140,140,15,False,False,a3a6d371-a135-11e9-9cda-0a87ae2ba916,True,41.9366884494997,-87.63682901859283,Lake Shore Dr & Wellington Ave,,"['CREDITCARD', 'TRANSITCARD', 'KEY']",TA1307000041,157
141,141,15,False,False,a3a6d884-a135-11e9-9cda-0a87ae2ba916,True,41.912616,-87.681391,Milwaukee Ave & Wabansia Ave,,"['CREDITCARD', 'TRANSITCARD', 'KEY']",13243,158
142,142,11,False,False,a3a6de38-a135-11e9-9cda-0a87ae2ba916,True,41.907781,-87.685854,Claremont Ave & Hirsch St,,"['CREDITCARD', 'TRANSITCARD', 'KEY']",13245,159
143,143,15,False,False,a3a6e359-a135-11e9-9cda-0a87ae2ba916,True,41.910535,-87.689556,Campbell Ave & North Ave,,"['CREDITCARD', 'TRANSITCARD', 'KEY']",13257,160
144,144,23,False,False,a3a6e866-a135-11e9-9cda-0a87ae2ba916,True,41.89576474564,-87.6259080327,Rush St & Superior St,,"['CREDITCARD', 'TRANSITCARD', 'KEY']",15530,161
145,145,15,False,False,a3a6ed98-a135-11e9-9cda-0a87ae2ba916,True,41.93588,-87.67842,Damen Ave & Wellington Ave,,"['CREDITCARD', 'TRANSITCARD', 'KEY']",13268,162
146,146,15,False,False,a3a6f2a2-a135-11e9-9cda-0a87ae2ba916,True,41.931931,-87.677856,Damen Ave & Clybourn Ave,,"['CREDITCARD', 'TRANSITCARD', 'KEY']",13271,163
147,147,27,False,False,a3a6f7a5-a135-11e9-9cda-0a87ae2ba916,True,41.885837,-87.6355,Franklin St & Lake St,,"['CREDITCARD', 'TRANSITCARD', 'KEY']",TA1307000111,164
148,148,23,False,False,a3a6fcac-a135-11e9-9cda-0a87ae2ba916,True,41.95078,-87.659172,Clark St & Grace St,,"['CREDITCARD', 'TRANSITCARD', 'KEY']",TA1307000127,165
149,149,15,False,False,a3a701b8-a135-11e9-9cda-0a87ae2ba916,True,41.92883,-87.668507,Ashland Ave & Wrightwood Ave,,"['CREDITCARD', 'TRANSITCARD', 'KEY']",13296,166
150,150,7,False,False,a3a706c0-a135-11e9-9cda-0a87ae2ba916,True,41.8492,-87.67564,Damen Ave & Coulter St,,"['CREDITCARD', 'TRANSITCARD', 'KEY']",TA1307000066,167
151,151,19,False,False,a3a70bbd-a135-11e9-9cda-0a87ae2ba916,True,41.864059,-87.623727,Michigan Ave & 14th St,,"['CREDITCARD', 'TRANSITCARD', 'KEY']",TA1307000124,168
152,152,15,False,False,a3a710c5-a135-11e9-9cda-0a87ae2ba916,True,41.874255,-87.639573,Canal St & Harrison St,,"['CREDITCARD', 'TRANSITCARD', 'KEY']",13326,169
153,153,15,False,False,a3a715ce-a135-11e9-9cda-0a87ae2ba916,True,41.85795,-87.640826,Clinton St & 18th St,,"['CREDITCARD', 'TRANSITCARD', 'KEY']",TA1307000044,170
154,154,11,False,False,a3a71b0a-a135-11e9-9cda-0a87ae2ba916,True,41.855136,-87.654127,May St & Cullerton St,,"['CREDITCARD', 'TRANSITCARD', 'KEY']",13331,171
155,155,11,False,False,a3a72012-a135-11e9-9cda-0a87ae2ba916,True,41.90230870122,-87.627690528,Rush St & Cedar St,,"['CREDITCARD', 'TRANSITCARD', 'KEY']",KA1504000133,172
156,156,15,False,False,a3a7258b-a135-11e9-9cda-0a87ae2ba916,True,41.89691,-87.621743,Mies van der Rohe Way & Chicago Ave,,"['CREDITCARD', 'TRANSITCARD', 'KEY']",13338,173
157,157,35,False,False,a3a72aad-a135-11e9-9cda-0a87ae2ba916,True,41.882091,-87.639833,Canal St & Madison St,,"['CREDITCARD', 'TRANSITCARD', 'KEY']",13341,174
158,158,19,False,False,a3a72fc4-a135-11e9-9cda-0a87ae2ba916,True,41.872596,-87.633502,Wells St & Polk St,,"['CREDITCARD', 'TRANSITCARD', 'KEY']",SL-011,175
159,159,39,False,False,a3a734ce-a135-11e9-9cda-0a87ae2ba916,True,41.902973,-87.63128,Clark St & Elm St,,"['CREDITCARD', 'TRANSITCARD', 'KEY']",TA1307000039,176
160,160,31,False,False,a3a739e4-a135-11e9-9cda-0a87ae2ba916,True,41.926277,-87.630834,Theater on the Lake,,"['CREDITCARD', 'TRANSITCARD', 'KEY']",TA1308000001,177
161,161,15,False,False,a3a73ef1-a135-11e9-9cda-0a87ae2ba916,True,41.856594,-87.627542,State St & 19th St,,"['CREDITCARD', 'TRANSITCARD', 'KEY']",SL-013,178
162,162,15,False,False,a3a743ff-a135-11e9-9cda-0a87ae2ba916,True,41.8246,-87.61678,MLK Jr Dr & Pershing Rd,,"['CREDITCARD', 'TRANSITCARD', 'KEY']",13420,179
163,163,15,False,False,a3a74947-a135-11e9-9cda-0a87ae2ba916,True,41.906866,-87.626217,Ritchie Ct & Banks St,,"['CREDITCARD', 'TRANSITCARD', 'KEY']",KA1504000134,180
164,164,31,False,False,a3a74e60-a135-11e9-9cda-0a87ae2ba916,True,41.890762,-87.631697,LaSalle St & Illinois St,,"['CREDITCARD', 'TRANSITCARD', 'KEY']",13430,181
165,165,23,False,False,a3a7537c-a135-11e9-9cda-0a87ae2ba916,True,41.903222,-87.634324,Wells St & Elm St,,"['CREDITCARD', 'TRANSITCARD', 'KEY']",KA1504000135,182
166,166,23,False,False,a3a75885-a135-11e9-9cda-0a87ae2ba916,True,41.901315,-87.677409,Damen Ave & Thomas St (Augusta Blvd),,"['CREDITCARD', 'TRANSITCARD', 'KEY']",TA1307000070,183
167,167,19,False,False,a3a75d8a-a135-11e9-9cda-0a87ae2ba916,True,41.8309,-87.62803,State St & 35th St,,"['CREDITCARD', 'TRANSITCARD', 'KEY']",TA1307000129,184
168,168,11,False,False,a3a762a1-a135-11e9-9cda-0a87ae2ba916,True,41.917741,-87.691392,Stave St & Armitage Ave,,"['CREDITCARD', 'TRANSITCARD', 'KEY']",13266,185
169,169,15,False,False,a3a767b1-a135-11e9-9cda-0a87ae2ba916,True,41.891795,-87.658751,Ogden Ave & Race Ave,,"['CREDITCARD', 'TRANSITCARD', 'KEY']",13194,186
170,170,15,False,False,a3a76cb6-a135-11e9-9cda-0a87ae2ba916,True,41.92533,-87.6658,Greenview Ave & Fullerton Ave,,"['CREDITCARD', 'TRANSITCARD', 'KEY']",TA1307000001,188
171,171,15,False,False,a3a771c2-a135-11e9-9cda-0a87ae2ba916,True,41.928773,-87.663913,Southport Ave & Wrightwood Ave,,"['CREDITCARD', 'TRANSITCARD', 'KEY']",TA1307000113,190
172,172,27,False,False,a3a7775b-a135-11e9-9cda-0a87ae2ba916,True,41.88169,-87.63953,Canal St & Monroe St,,"['CREDITCARD', 'TRANSITCARD', 'KEY']",13056,191
173,173,47,False,False,a3a77c8d-a135-11e9-9cda-0a87ae2ba916,True,41.879255,-87.639904,Canal St & Adams St,,"['CREDITCARD', 'TRANSITCARD', 'KEY']",13011,192
174,174,11,False,False,a3a781a6-a135-11e9-9cda-0a87ae2ba916,True,41.841707,-87.626938,State St & 29th St,,"['CREDITCARD', 'TRANSITCARD', 'KEY']",13213,193
175,175,19,False,False,a3a786ac-a135-11e9-9cda-0a87ae2ba916,True,41.886875,-87.62603,Wabash Ave & Wacker Pl,,"['CREDITCARD', 'TRANSITCARD', 'KEY']",TA1307000131,194
176,176,55,False,False,a3a78bc0-a135-11e9-9cda-0a87ae2ba916,True,41.884728,-87.619521,Columbus Dr & Randolph St,,"['CREDITCARD', 'TRANSITCARD', 'KEY']",13263,195
177,177,31,False,False,a3a790cc-a135-11e9-9cda-0a87ae2ba916,True,41.890573,-87.622072,Cityfront Plaza Dr & Pioneer Ct,,"['CREDITCARD', 'TRANSITCARD', 'KEY']",13427,196
178,178,19,False,False,a3a795d7-a135-11e9-9cda-0a87ae2ba916,True,41.882134,-87.625125,Michigan Ave & Madison St,,"['CREDITCARD', 'TRANSITCARD', 'KEY']",13036,197
179,179,27,False,False,a3a79adb-a135-11e9-9cda-0a87ae2ba916,True,41.881892,-87.648789,Green St & Madison St,,"['CREDITCARD', 'TRANSITCARD', 'KEY']",TA1307000120,198
180,180,31,False,False,a3a79fdc-a135-11e9-9cda-0a87ae2ba916,True,41.891466,-87.626761,Wabash Ave & Grand Ave,,"['CREDITCARD', 'TRANSITCARD', 'KEY']",TA1307000117,199
181,181,11,False,False,a3a7a4fc-a135-11e9-9cda-0a87ae2ba916,True,41.809851,-87.616279,MLK Jr Dr & 47th St,,"['CREDITCARD', 'TRANSITCARD', 'KEY']",TA1308000007,200
182,182,11,False,False,a3a7aa0e-a135-11e9-9cda-0a87ae2ba916,True,41.82168,-87.6216,Indiana Ave & 40th St,,"['CREDITCARD', 'TRANSITCARD', 'KEY']",13083,201
183,183,15,False,False,a3a7af11-a135-11e9-9cda-0a87ae2ba916,True,41.857499,-87.646277,Halsted St & 18th St,,"['CREDITCARD', 'TRANSITCARD', 'KEY']",13099,202
184,184,15,False,False,a3a7b41d-a135-11e9-9cda-0a87ae2ba916,True,41.854109,-87.685838,Western Ave & 21st St,,"['CREDITCARD', 'TRANSITCARD', 'KEY']",13091,203
185,185,11,False,False,a3a7b936-a135-11e9-9cda-0a87ae2ba916,True,41.794853,-87.618691,Prairie Ave & Garfield Blvd,,"['CREDITCARD', 'TRANSITCARD', 'KEY']",TA1307000160,204
186,186,15,False,False,a3a7be40-a135-11e9-9cda-0a87ae2ba916,True,41.857901,-87.668745,Paulina St & 18th St,,"['CREDITCARD', 'TRANSITCARD', 'KEY']",TA1307000159,205
187,187,15,False,False,a3a7c341-a135-11e9-9cda-0a87ae2ba916,True,41.847203,-87.646795,Halsted St & Archer Ave,,"['CREDITCARD', 'TRANSITCARD', 'KEY']",TA1308000013,206
188,188,15,False,False,a3a7c852-a135-11e9-9cda-0a87ae2ba916,True,41.84358,-87.645368,Emerald Ave & 28th St,,"['CREDITCARD', 'TRANSITCARD', 'KEY']",TA1307000153,207
189,189,15,False,False,a3a7cd56-a135-11e9-9cda-0a87ae2ba916,True,41.85381,-87.665897,Ashland Ave & 21st St,,"['CREDITCARD', 'TRANSITCARD', 'KEY']",13307,208
190,190,11,False,False,a3a7d279-a135-11e9-9cda-0a87ae2ba916,True,41.849527,-87.640591,Normal Ave & Archer Ave,,"['CREDITCARD', 'TRANSITCARD', 'KEY']",TA1308000014,209
191,191,27,False,False,a3a7d782-a135-11e9-9cda-0a87ae2ba916,True,41.90345,-87.667747,Ashland Ave & Division St,,"['CREDITCARD', 'TRANSITCARD', 'KEY']",13061,210
192,192,19,False,False,a3a7dc8c-a135-11e9-9cda-0a87ae2ba916,True,41.894448,-87.622663,St. Clair St & Erie St,,"['CREDITCARD', 'TRANSITCARD', 'KEY']",13016,211
193,193,31,False,False,a3a7e19b-a135-11e9-9cda-0a87ae2ba916,True,41.889906,-87.634266,Wells St & Hubbard St,,"['CREDITCARD', 'TRANSITCARD', 'KEY']",TA1307000151,212
194,194,15,False,False,a3a7e69e-a135-11e9-9cda-0a87ae2ba916,True,41.910153,-87.68229,Leavitt St & North Ave,,"['CREDITCARD', 'TRANSITCARD', 'KEY']",TA1308000005,213
195,195,23,False,False,a3a7eba7-a135-11e9-9cda-0a87ae2ba916,True,41.89122,-87.67686,Damen Ave & Grand Ave,,"['CREDITCARD', 'TRANSITCARD', 'KEY']",TA1308000006,214
196,196,15,False,False,a3a7f0ba-a135-11e9-9cda-0a87ae2ba916,True,41.88137,-87.67493,Damen Ave & Madison St,,"['CREDITCARD', 'TRANSITCARD', 'KEY']",13134,215
197,197,15,False,False,a3a7f5ea-a135-11e9-9cda-0a87ae2ba916,True,41.903029,-87.697474,California Ave & Division St,,"['CREDITCARD', 'TRANSITCARD', 'KEY']",13256,216
198,198,15,False,False,a3a7faf7-a135-11e9-9cda-0a87ae2ba916,True,41.886616486027656,-87.6580399274826,Elizabeth (May) St & Fulton St,,"['CREDITCARD', 'TRANSITCARD', 'KEY']",13197,217
199,199,11,False,False,a3a80009-a135-11e9-9cda-0a87ae2ba916,True,41.856802,-87.633879,Wells St & 19th St,,"['CREDITCARD', 'TRANSITCARD', 'KEY']",SL-006,218
200,200,19,False,False,a3a80512-a135-11e9-9cda-0a87ae2ba916,True,41.915983,-87.677335,Damen Ave & Cortland St,,"['CREDITCARD', 'TRANSITCARD', 'KEY']",13133,219
201,201,23,False,False,a3a80a1e-a135-11e9-9cda-0a87ae2ba916,True,41.931248,-87.644336,Clark St & Drummond Pl,,"['CREDITCARD', 'TRANSITCARD', 'KEY']",TA1307000142,220
202,202,19,False,False,a3a80f32-a135-11e9-9cda-0a87ae2ba916,True,41.920195,-87.693033,Milwaukee Ave & Rockwell St,,"['CREDITCARD', 'TRANSITCARD', 'KEY']",13242,222
203,203,15,False,False,a3a817dc-a135-11e9-9cda-0a87ae2ba916,True,41.918216,-87.656936,Clifton Ave & Armitage Ave,,"['CREDITCARD', 'TRANSITCARD', 'KEY']",TA1307000163,223
204,204,19,False,False,a3a81d33-a135-11e9-9cda-0a87ae2ba916,True,41.913865,-87.648755,Halsted St & Willow St,,"['CREDITCARD', 'TRANSITCARD', 'KEY']",TA1307000166,224
205,205,23,False,False,a3a8224f-a135-11e9-9cda-0a87ae2ba916,True,41.919936,-87.64883,Halsted St & Dickens Ave,,"['CREDITCARD', 'TRANSITCARD', 'KEY']",13192,225
206,206,15,False,False,a3a8275e-a135-11e9-9cda-0a87ae2ba916,True,41.939743,-87.658865,Racine Ave & Belmont Ave,,"['CREDITCARD', 'TRANSITCARD', 'KEY']",TA1308000019,226
207,207,23,False,False,a3a82c6c-a135-11e9-9cda-0a87ae2ba916,True,41.94815,-87.66394,Southport Ave & Waveland Ave,,"['CREDITCARD', 'TRANSITCARD', 'KEY']",13235,227
208,208,15,False,False,a3a83181-a135-11e9-9cda-0a87ae2ba916,True,41.9406,-87.6785,Damen Ave & Melrose Ave,,"['CREDITCARD', 'TRANSITCARD', 'KEY']",13143,228
209,209,19,False,False,a3a83698-a135-11e9-9cda-0a87ae2ba916,True,41.943739,-87.66402,Southport Ave & Roscoe St,,"['CREDITCARD', 'TRANSITCARD', 'KEY']",13071,229
210,210,19,False,False,a3a83ba1-a135-11e9-9cda-0a87ae2ba916,True,41.94334,-87.67097,Lincoln Ave & Roscoe St,,"['CREDITCARD', 'TRANSITCARD', 'KEY']",TA1307000138,230
211,211,23,False,False,a3a840a6-a135-11e9-9cda-0a87ae2ba916,True,41.96167,-87.65464,Sheridan Rd & Montrose Ave,,"['CREDITCARD', 'TRANSITCARD', 'KEY']",TA1307000107,231
212,212,23,False,False,a3a845b0-a135-11e9-9cda-0a87ae2ba916,True,41.949275,-87.646303,Pine Grove Ave & Waveland Ave,,"['CREDITCARD', 'TRANSITCARD', 'KEY']",TA1307000150,232
213,213,15,False,False,a3a84ab4-a135-11e9-9cda-0a87ae2ba916,True,41.883165,-87.6511,Sangamon St & Washington Blvd,,"['CREDITCARD', 'TRANSITCARD', 'KEY']",13409,233
214,214,19,False,False,a3a84fb8-a135-11e9-9cda-0a87ae2ba916,True,41.961588,-87.666036,Clark St & Montrose Ave,,"['CREDITCARD', 'TRANSITCARD', 'KEY']",KA1503000022,234
215,215,15,False,False,a3a854bf-a135-11e9-9cda-0a87ae2ba916,True,41.907626,-87.638566,Sedgwick St & Schiller St,,"['CREDITCARD', 'TRANSITCARD', 'KEY']",TA1307000143,236
216,216,19,False,False,a3a859c4-a135-11e9-9cda-0a87ae2ba916,True,41.842052,-87.617,MLK Jr Dr & 29th St,,"['CREDITCARD', 'TRANSITCARD', 'KEY']",TA1307000139,237
217,217,15,False,False,a3a85eda-a135-11e9-9cda-0a87ae2ba916,True,41.961406,-87.676169,Wolcott (Ravenswood) Ave & Montrose Ave,,"['CREDITCARD', 'TRANSITCARD', 'KEY']",TA1307000144,238
218,218,15,False,False,a3a866a5-a135-11e9-9cda-0a87ae2ba916,True,41.96581646001197,-87.68649816513062,Western Ave & Leland Ave,,"['CREDITCARD', 'TRANSITCARD', 'KEY']",TA1307000140,239
219,219,27,False,False,a3a86c05-a135-11e9-9cda-0a87ae2ba916,True,41.954245,-87.654406,Sheridan Rd & Irving Park Rd,,"['CREDITCARD', 'TRANSITCARD', 'KEY']",13063,240
220,220,19,False,False,a3a8711c-a135-11e9-9cda-0a87ae2ba916,True,41.871737,-87.65103,Morgan St & Polk St,,"['CREDITCARD', 'TRANSITCARD', 'KEY']",TA1307000130,241
221,221,15,False,False,a3a87631-a135-11e9-9cda-0a87ae2ba916,True,41.967094,-87.679028,Damen Ave & Leland Ave,,"['CREDITCARD', 'TRANSITCARD', 'KEY']",TA1307000158,242
222,222,15,False,False,a3a87b3f-a135-11e9-9cda-0a87ae2ba916,True,41.963004,-87.684781,Lincoln Ave & Sunnyside Ave,,"['CREDITCARD', 'TRANSITCARD', 'KEY']",TA1307000156,243
223,223,19,False,False,a3a8804b-a135-11e9-9cda-0a87ae2ba916,True,41.95469,-87.67393,Ravenswood Ave & Irving Park Rd,,"['CREDITCARD', 'TRANSITCARD', 'KEY']",TA1307000149,244
224,224,23,False,False,a3a8855c-a135-11e9-9cda-0a87ae2ba916,True,41.961004,-87.649603,Clarendon Ave & Junior Ter,,"['CREDITCARD', 'TRANSITCARD', 'KEY']",13389,245
225,225,11,False,False,a3a88a6d-a135-11e9-9cda-0a87ae2ba916,True,41.956057,-87.668835,Ashland Ave & Belle Plaine Ave,,"['CREDITCARD', 'TRANSITCARD', 'KEY']",13249,246
226,226,19,False,False,a3a88f84-a135-11e9-9cda-0a87ae2ba916,True,41.795212,-87.580715,Shore Dr & 55th St,,"['CREDITCARD', 'TRANSITCARD', 'KEY']",TA1308000009,247
227,227,19,False,False,a3a89488-a135-11e9-9cda-0a87ae2ba916,True,41.795264,-87.596471,Woodlawn Ave & 55th St,,"['CREDITCARD', 'TRANSITCARD', 'KEY']",TA1307000164,248
228,228,31,False,False,a3a8999a-a135-11e9-9cda-0a87ae2ba916,True,41.963982,-87.638181,Montrose Harbor,,"['CREDITCARD', 'TRANSITCARD', 'KEY']",TA1308000012,249
229,229,19,False,False,a3a89ea8-a135-11e9-9cda-0a87ae2ba916,True,41.936083,-87.669807,Ashland Ave & Wellington Ave,,"['CREDITCARD', 'TRANSITCARD', 'KEY']",13269,250
230,230,15,False,False,a3a9309d-a135-11e9-9cda-0a87ae2ba916,True,41.967968,-87.650001,Clarendon Ave & Leland Ave,,"['CREDITCARD', 'TRANSITCARD', 'KEY']",TA1307000119,251
231,231,15,False,False,a3a93622-a135-11e9-9cda-0a87ae2ba916,True,41.809835,-87.599383,Greenwood Ave & 47th St,,"['CREDITCARD', 'TRANSITCARD', 'KEY']",TA1308000002,252
232,232,15,False,False,a3a93b6d-a135-11e9-9cda-0a87ae2ba916,True,41.968812,-87.657659,Winthrop Ave & Lawrence Ave,,"['CREDITCARD', 'TRANSITCARD', 'KEY']",TA1308000021,253
233,233,15,False,False,a3a940a2-a135-11e9-9cda-0a87ae2ba916,True,41.954383,-87.648043,Pine Grove Ave & Irving Park Rd,,"['CREDITCARD', 'TRANSITCARD', 'KEY']",TA1308000022,254
234,234,39,False,False,a3a945c0-a135-11e9-9cda-0a87ae2ba916,True,41.867888,-87.623041,Indiana Ave & Roosevelt Rd,,"['CREDITCARD', 'TRANSITCARD', 'KEY']",SL-005,255
235,235,15,False,False,a3a94bc8-a135-11e9-9cda-0a87ae2ba916,True,41.952833,-87.649993,Broadway & Sheridan Rd,,"['CREDITCARD', 'TRANSITCARD', 'KEY']",13323,256
236,236,15,False,False,a3a95142-a135-11e9-9cda-0a87ae2ba916,True,41.948797,-87.675278,Lincoln Ave & Waveland Ave,,"['CREDITCARD', 'TRANSITCARD', 'KEY']",13253,257
237,237,27,False,False,a3a95669-a135-11e9-9cda-0a87ae2ba916,True,41.929465,-87.684158,Logan Blvd & Elston Ave,,"['CREDITCARD', 'TRANSITCARD', 'KEY']",TA1308000031,258
238,238,15,False,False,a3a95b7a-a135-11e9-9cda-0a87ae2ba916,True,41.91849115368695,-87.69742280244827,California Ave & Francis Pl (Temp),,"['CREDITCARD', 'TRANSITCARD', 'KEY']",13259,259
239,239,35,False,False,a3a9607f-a135-11e9-9cda-0a87ae2ba916,True,41.929567,-87.707857,Kedzie Ave & Milwaukee Ave,,"['CREDITCARD', 'TRANSITCARD', 'KEY']",13085,260
240,240,15,False,False,a3a965b2-a135-11e9-9cda-0a87ae2ba916,True,41.871514,-87.669886,Hermitage Ave & Polk St,,"['CREDITCARD', 'TRANSITCARD', 'KEY']",13080,261
241,241,11,False,False,a3a96aca-a135-11e9-9cda-0a87ae2ba916,True,41.827059,-87.64572,Halsted St & 37th St,,"['CREDITCARD', 'TRANSITCARD', 'KEY']",TA1307000161,262
242,242,11,False,False,a3a96fd5-a135-11e9-9cda-0a87ae2ba916,True,41.836208,-87.613533,Rhodes Ave & 32nd St,,"['CREDITCARD', 'TRANSITCARD', 'KEY']",13215,263
243,243,19,False,False,a3a974e1-a135-11e9-9cda-0a87ae2ba916,True,41.886835,-87.62232,Stetson Ave & South Water St,,"['CREDITCARD', 'TRANSITCARD', 'KEY']",TA1308000029,264
244,244,15,False,False,a3a97a01-a135-11e9-9cda-0a87ae2ba916,True,41.822985,-87.6071,Cottage Grove Ave & Oakwood Blvd,,"['CREDITCARD', 'TRANSITCARD', 'KEY']",TA1308000038,265
245,245,15,False,False,a3a98429-a135-11e9-9cda-0a87ae2ba916,True,41.809443,-87.591875,Lake Park Ave & 47th St,,"['CREDITCARD', 'TRANSITCARD', 'KEY']",TA1308000035,267
246,246,39,False,False,a3a9892f-a135-11e9-9cda-0a87ae2ba916,True,41.911722,-87.626804,Lake Shore Dr & North Blvd,,"['CREDITCARD', 'TRANSITCARD', 'KEY']",LF-005,268
247,247,11,False,False,a3a98e37-a135-11e9-9cda-0a87ae2ba916,True,41.7586696704,-87.586882871,Stony Island Ave & 75th St,,"['CREDITCARD', 'TRANSITCARD', 'KEY']",KA1503000019,270
248,248,11,False,False,a3a99346-a135-11e9-9cda-0a87ae2ba916,True,41.816499,-87.606582,Cottage Grove Ave & 43rd St,,"['CREDITCARD', 'TRANSITCARD', 'KEY']",TA1308000023,271
249,249,11,False,False,a3a9984a-a135-11e9-9cda-0a87ae2ba916,True,41.838842,-87.621857,Indiana Ave & 31st St,,"['CREDITCARD', 'TRANSITCARD', 'KEY']",TA1308000036,272
250,250,23,False,False,a3a99d47-a135-11e9-9cda-0a87ae2ba916,True,41.857813,-87.62455,Michigan Ave & 18th St,,"['CREDITCARD', 'TRANSITCARD', 'KEY']",13150,273
251,251,15,False,False,a3a9a24f-a135-11e9-9cda-0a87ae2ba916,True,41.861267,-87.656625,Racine Ave & 15th St,,"['CREDITCARD', 'TRANSITCARD', 'KEY']",13304,274
252,252,15,False,False,a3a9a778-a135-11e9-9cda-0a87ae2ba916,True,41.865234,-87.666507,Ashland Ave & 13th St,,"['CREDITCARD', 'TRANSITCARD', 'KEY']",13354,275
253,253,11,False,False,a3a9acc5-a135-11e9-9cda-0a87ae2ba916,True,41.91044,-87.6972,California Ave & North Ave,,"['CREDITCARD', 'TRANSITCARD', 'KEY']",13258,276
254,254,15,False,False,a3a9b1d7-a135-11e9-9cda-0a87ae2ba916,True,41.891072,-87.666611,Ashland Ave & Grand Ave,,"['CREDITCARD', 'TRANSITCARD', 'KEY']",13434,277
255,255,15,False,False,a3a9b6e9-a135-11e9-9cda-0a87ae2ba916,True,41.830629,-87.64129,Wallace St & 35th St,,"['CREDITCARD', 'TRANSITCARD', 'KEY']",TA1308000045,278
256,256,15,False,False,a3a9bbf0-a135-11e9-9cda-0a87ae2ba916,True,41.830661,-87.647172,Halsted St & 35th St,,"['CREDITCARD', 'TRANSITCARD', 'KEY']",TA1308000043,279
257,257,11,False,False,a3a9c0f6-a135-11e9-9cda-0a87ae2ba916,True,41.8378,-87.65114,Morgan St & 31st St,,"['CREDITCARD', 'TRANSITCARD', 'KEY']",TA1308000046,280
258,258,7,False,False,a3a9c5f7-a135-11e9-9cda-0a87ae2ba916,True,41.84847,-87.685109,Western Ave & 24th St,,"['CREDITCARD', 'TRANSITCARD', 'KEY']",TA1309000003,281
259,259,15,False,False,a3a9cafa-a135-11e9-9cda-0a87ae2ba916,True,41.864883,-87.647071,Halsted St & Maxwell St,,"['CREDITCARD', 'TRANSITCARD', 'KEY']",TA1309000001,282
260,260,35,False,False,a3a9d00a-a135-11e9-9cda-0a87ae2ba916,True,41.878166,-87.631929,LaSalle St & Jackson Blvd,,"['CREDITCARD', 'TRANSITCARD', 'KEY']",TA1309000004,283
261,261,23,False,False,a3a9d529-a135-11e9-9cda-0a87ae2ba916,True,41.87785,-87.62408,Michigan Ave & Jackson Blvd,,"['CREDITCARD', 'TRANSITCARD', 'KEY']",TA1309000002,284
262,262,19,False,False,a3a9da3b-a135-11e9-9cda-0a87ae2ba916,True,41.889899,-87.671473,Wood St & Hubbard St,,"['CREDITCARD', 'TRANSITCARD', 'KEY']",13432,285
263,263,15,False,False,a3a9df3a-a135-11e9-9cda-0a87ae2ba916,True,41.87943409140013,-87.63550400733948,Franklin St & Adams St (Temp),,"['CREDITCARD', 'TRANSITCARD', 'KEY']",TA1309000008,286
264,264,31,False,False,a3a9e44a-a135-11e9-9cda-0a87ae2ba916,True,41.880317,-87.635185,Franklin St & Monroe St,,"['CREDITCARD', 'TRANSITCARD', 'KEY']",TA1309000007,287
265,265,15,False,False,a3a9ecff-a135-11e9-9cda-0a87ae2ba916,True,41.918084,-87.643749,Larrabee St & Armitage Ave,,"['CREDITCARD', 'TRANSITCARD', 'KEY']",TA1309000006,288
266,266,19,False,False,a3a9f256-a135-11e9-9cda-0a87ae2ba916,True,41.912133,-87.634656,Wells St & Concord Ln,,"['CREDITCARD', 'TRANSITCARD', 'KEY']",TA1308000050,289
267,267,15,False,False,a3a9f76a-a135-11e9-9cda-0a87ae2ba916,True,41.921525,-87.707322,Kedzie Ave & Palmer Ct,,"['CREDITCARD', 'TRANSITCARD', 'KEY']",13292,290
268,268,19,False,False,a3a9fc75-a135-11e9-9cda-0a87ae2ba916,True,41.906724,-87.63483,Wells St & Evergreen Ave,,"['CREDITCARD', 'TRANSITCARD', 'KEY']",TA1308000049,291
269,269,11,False,False,a3aa017e-a135-11e9-9cda-0a87ae2ba916,True,41.957081,-87.664199,Southport Ave & Clark St,,"['CREDITCARD', 'TRANSITCARD', 'KEY']",TA1308000047,292
270,270,23,False,False,a3aa0699-a135-11e9-9cda-0a87ae2ba916,True,41.965221,-87.658139,Broadway & Wilson Ave,,"['CREDITCARD', 'TRANSITCARD', 'KEY']",13074,293
271,271,15,False,False,a3aa0bb7-a135-11e9-9cda-0a87ae2ba916,True,41.978353,-87.659753,Broadway & Berwyn Ave,,"['CREDITCARD', 'TRANSITCARD', 'KEY']",13109,294
272,272,19,False,False,a3aa10ca-a135-11e9-9cda-0a87ae2ba916,True,41.973815,-87.65966,Broadway & Argyle St,,"['CREDITCARD', 'TRANSITCARD', 'KEY']",13108,295
273,273,19,False,False,a3aa1623-a135-11e9-9cda-0a87ae2ba916,True,41.940106,-87.645451,Broadway & Belmont Ave,,"['CREDITCARD', 'TRANSITCARD', 'KEY']",13277,296
274,274,15,False,False,a3aa1b5b-a135-11e9-9cda-0a87ae2ba916,True,41.961507,-87.671387,Paulina St & Montrose Ave,,"['CREDITCARD', 'TRANSITCARD', 'KEY']",TA1309000021,297
275,275,15,False,False,a3aa2078-a135-11e9-9cda-0a87ae2ba916,True,41.95602,-87.680293,Lincoln Ave & Belle Plaine Ave,,"['CREDITCARD', 'TRANSITCARD', 'KEY']",TA1309000026,298
276,276,15,False,False,a3aa259c-a135-11e9-9cda-0a87ae2ba916,True,41.94367,-87.64895,Halsted St & Roscoe St,,"['CREDITCARD', 'TRANSITCARD', 'KEY']",TA1309000025,299
277,277,19,False,False,a3aa2abb-a135-11e9-9cda-0a87ae2ba916,True,41.937725,-87.644095,Broadway & Barry Ave,,"['CREDITCARD', 'TRANSITCARD', 'KEY']",13137,300
278,278,19,False,False,a3aa2ff4-a135-11e9-9cda-0a87ae2ba916,True,41.907993,-87.631501,Clark St & Schiller St,,"['CREDITCARD', 'TRANSITCARD', 'KEY']",TA1309000024,301
279,279,31,False,False,a3aa35a4-a135-11e9-9cda-0a87ae2ba916,True,41.928712,-87.653833,Sheffield Ave & Wrightwood Ave,,"['CREDITCARD', 'TRANSITCARD', 'KEY']",TA1309000023,302
280,280,23,False,False,a3aa3adf-a135-11e9-9cda-0a87ae2ba916,True,41.945529,-87.646439,Broadway & Cornelia Ave,,"['CREDITCARD', 'TRANSITCARD', 'KEY']",13278,303
281,281,15,False,False,a3aa4017-a135-11e9-9cda-0a87ae2ba916,True,41.949074,-87.648636,Broadway & Waveland Ave,,"['CREDITCARD', 'TRANSITCARD', 'KEY']",13325,304
282,282,23,False,False,a3aa453c-a135-11e9-9cda-0a87ae2ba916,True,41.902893,-87.687275,Western Ave & Division St,,"['CREDITCARD', 'TRANSITCARD', 'KEY']",13241,305
283,283,19,False,False,a3aa4a58-a135-11e9-9cda-0a87ae2ba916,True,41.958494,-87.654966,Sheridan Rd & Buena Ave,,"['CREDITCARD', 'TRANSITCARD', 'KEY']",TA1309000027,306
284,284,15,False,False,a3aa4f80-a135-11e9-9cda-0a87ae2ba916,True,41.920771,-87.663712,Southport Ave & Clybourn Ave,,"['CREDITCARD', 'TRANSITCARD', 'KEY']",TA1309000030,307
285,285,11,False,False,a3aa54a0-a135-11e9-9cda-0a87ae2ba916,True,41.943403,-87.679618,Seeley Ave & Roscoe St,,"['CREDITCARD', 'TRANSITCARD', 'KEY']",13144,308
286,286,11,False,False,a3aa59bb-a135-11e9-9cda-0a87ae2ba916,True,41.917805,-87.682437,Leavitt St & Armitage Ave,,"['CREDITCARD', 'TRANSITCARD', 'KEY']",TA1309000029,309
287,287,11,False,False,a3aa5ed1-a135-11e9-9cda-0a87ae2ba916,True,41.920082,-87.677855,Damen Ave & Charleston St,,"['CREDITCARD', 'TRANSITCARD', 'KEY']",13288,310
288,288,19,False,False,a3aa640c-a135-11e9-9cda-0a87ae2ba916,True,41.968885,-87.684001,Leavitt St & Lawrence Ave,,"['CREDITCARD', 'TRANSITCARD', 'KEY']",TA1309000015,311
289,289,15,False,False,a3aa692e-a135-11e9-9cda-0a87ae2ba916,True,41.957879,-87.649519,Clarendon Ave & Gordon Ter,,"['CREDITCARD', 'TRANSITCARD', 'KEY']",13379,312
290,290,19,False,False,a3aa6e51-a135-11e9-9cda-0a87ae2ba916,True,41.925858,-87.638973,Lakeview Ave & Fullerton Pkwy,,"['CREDITCARD', 'TRANSITCARD', 'KEY']",TA1309000019,313
291,291,15,False,False,a3aa7373-a135-11e9-9cda-0a87ae2ba916,True,41.957921,-87.673567,Ravenswood Ave & Berteau Ave,,"['CREDITCARD', 'TRANSITCARD', 'KEY']",TA1309000018,314
292,292,23,False,False,a3aa7897-a135-11e9-9cda-0a87ae2ba916,True,41.912919,-87.664169,Elston Ave & Wabansia Ave,,"['CREDITCARD', 'TRANSITCARD', 'KEY']",TA1309000032,315
293,293,19,False,False,a3aa7db3-a135-11e9-9cda-0a87ae2ba916,True,41.96325,-87.679258,Damen Ave & Sunnyside Ave,,"['CREDITCARD', 'TRANSITCARD', 'KEY']",TA1309000012,316
294,294,23,False,False,a3aa82d0-a135-11e9-9cda-0a87ae2ba916,True,41.869154,-87.671045,Wood St & Taylor St,,"['CREDITCARD', 'TRANSITCARD', 'KEY']",TA1309000040,317
295,295,15,False,False,a3aa8ca0-a135-11e9-9cda-0a87ae2ba916,True,41.954177,-87.664358,Southport Ave & Irving Park Rd,,"['CREDITCARD', 'TRANSITCARD', 'KEY']",TA1309000043,318
296,296,15,False,False,a3aa91f4-a135-11e9-9cda-0a87ae2ba916,True,41.93258963429789,-87.66593635082245,Greenview Ave & Diversey Pkwy,,"['CREDITCARD', 'TRANSITCARD', 'KEY']",13294,319
297,297,19,False,False,a3aa9732-a135-11e9-9cda-0a87ae2ba916,True,41.872187,-87.661501,Loomis St & Lexington St,,"['CREDITCARD', 'TRANSITCARD', 'KEY']",13332,320
298,298,19,False,False,a3aa9c65-a135-11e9-9cda-0a87ae2ba916,True,41.870769,-87.625734,Wabash Ave & 9th St,,"['CREDITCARD', 'TRANSITCARD', 'KEY']",TA1309000010,321
299,299,19,False,False,a3aaa17b-a135-11e9-9cda-0a87ae2ba916,True,41.799568,-87.594747,Kimbark Ave & 53rd St,,"['CREDITCARD', 'TRANSITCARD', 'KEY']",TA1309000037,322
300,300,19,False,False,a3aaa68b-a135-11e9-9cda-0a87ae2ba916,True,41.969517,-87.654691,Sheridan Rd & Lawrence Ave,,"['CREDITCARD', 'TRANSITCARD', 'KEY']",TA1309000041,323
301,301,15,False,False,a3aaaba2-a135-11e9-9cda-0a87ae2ba916,True,41.93132,-87.638742,Stockton Dr & Wrightwood Ave,,"['CREDITCARD', 'TRANSITCARD', 'KEY']",13276,324
302,302,19,False,False,a3aab0b6-a135-11e9-9cda-0a87ae2ba916,True,41.97334,-87.66778,Clark St & Winnemac Ave,,"['CREDITCARD', 'TRANSITCARD', 'KEY']",TA1309000035,325
303,303,19,False,False,a3aab5c1-a135-11e9-9cda-0a87ae2ba916,True,41.967096,-87.667429,Clark St & Leland Ave,,"['CREDITCARD', 'TRANSITCARD', 'KEY']",TA1309000014,326
304,304,19,False,False,a3aabad8-a135-11e9-9cda-0a87ae2ba916,True,41.92154,-87.653818,Sheffield Ave & Webster Ave,,"['CREDITCARD', 'TRANSITCARD', 'KEY']",TA1309000033,327
305,305,19,False,False,a3aabfe3-a135-11e9-9cda-0a87ae2ba916,True,41.788746,-87.601334,Ellis Ave & 58th St,,"['CREDITCARD', 'TRANSITCARD', 'KEY']",TA1309000011,328
306,306,23,False,False,a3aac4f9-a135-11e9-9cda-0a87ae2ba916,True,41.932588,-87.636427,Lake Shore Dr & Diversey Pkwy,,"['CREDITCARD', 'TRANSITCARD', 'KEY']",TA1309000039,329
307,307,19,False,False,a3aaca0e-a135-11e9-9cda-0a87ae2ba916,True,41.946176,-87.673308,Lincoln Ave & Addison St,,"['CREDITCARD', 'TRANSITCARD', 'KEY']",TA1309000050,330
308,308,27,False,False,a3aacf29-a135-11e9-9cda-0a87ae2ba916,True,41.909668,-87.648128,Halsted St & Clybourn Ave,,"['CREDITCARD', 'TRANSITCARD', 'KEY']",331,331
309,309,19,False,False,a3aad436-a135-11e9-9cda-0a87ae2ba916,True,41.93314,-87.64776,Burling St (Halsted) & Diversey Pkwy (Temp),,"['CREDITCARD', 'TRANSITCARD', 'KEY']",TA1309000036,332
310,310,15,False,False,a3aad940-a135-11e9-9cda-0a87ae2ba916,True,41.907066,-87.667252,Ashland Ave & Blackhawk St,,"['CREDITCARD', 'TRANSITCARD', 'KEY']",13224,333
311,311,19,False,False,a3aade4c-a135-11e9-9cda-0a87ae2ba916,True,41.940775,-87.639192,Lake Shore Dr & Belmont Ave,,"['CREDITCARD', 'TRANSITCARD', 'KEY']",TA1309000049,334
312,312,15,False,False,a3aae35a-a135-11e9-9cda-0a87ae2ba916,True,41.831379,-87.618034,Calumet Ave & 35th St,,"['CREDITCARD', 'TRANSITCARD', 'KEY']",13345,335
313,313,15,False,False,a3aae870-a135-11e9-9cda-0a87ae2ba916,True,41.809855,-87.606755,Cottage Grove Ave & 47th St,,"['CREDITCARD', 'TRANSITCARD', 'KEY']",TA1309000053,336
314,314,19,False,False,a3aaed81-a135-11e9-9cda-0a87ae2ba916,True,41.89675,-87.63089,Clark St & Chicago Ave,,"['CREDITCARD', 'TRANSITCARD', 'KEY']",13303,337
315,315,15,False,False,a3aaf2ac-a135-11e9-9cda-0a87ae2ba916,True,41.857611,-87.619407,Calumet Ave & 18th St,,"['CREDITCARD', 'TRANSITCARD', 'KEY']",13102,338
316,316,11,False,False,a3aaf7bc-a135-11e9-9cda-0a87ae2ba916,True,41.838198,-87.645143,Emerald Ave & 31st St,,"['CREDITCARD', 'TRANSITCARD', 'KEY']",TA1309000055,339
317,317,15,False,False,a3aafccb-a135-11e9-9cda-0a87ae2ba916,True,41.929546,-87.643118,Clark St & Wrightwood Ave,,"['CREDITCARD', 'TRANSITCARD', 'KEY']",TA1305000014,340
318,318,39,False,False,a3ab812d-a135-11e9-9cda-0a87ae2ba916,True,41.866095,-87.607267,Adler Planetarium,,"['CREDITCARD', 'TRANSITCARD', 'KEY']",13431,341
319,319,23,False,False,a3ab86b6-a135-11e9-9cda-0a87ae2ba916,True,41.871262,-87.673688,Wolcott Ave & Polk St,,"['CREDITCARD', 'TRANSITCARD', 'KEY']",TA1309000064,342
320,320,15,False,False,a3ab8bee-a135-11e9-9cda-0a87ae2ba916,True,41.928887,-87.658971,Racine Ave & Wrightwood Ave,,"['CREDITCARD', 'TRANSITCARD', 'KEY']",TA1309000059,343
321,321,47,False,False,a3ab9119-a135-11e9-9cda-0a87ae2ba916,True,41.96909,-87.674237,Ravenswood Ave & Lawrence Ave,,"['CREDITCARD', 'TRANSITCARD', 'KEY']",TA1309000066,344
322,322,19,False,False,a3ac0fff-a135-11e9-9cda-0a87ae2ba916,True,41.793242,-87.587782,Lake Park Ave & 56th St,,"['CREDITCARD', 'TRANSITCARD', 'KEY']",TA1309000063,345
323,323,15,False,False,a3ac1607-a135-11e9-9cda-0a87ae2ba916,True,41.88283,-87.661206,Ada St & Washington Blvd,,"['CREDITCARD', 'TRANSITCARD', 'KEY']",13353,346
324,324,15,False,False,a3ac1bc9-a135-11e9-9cda-0a87ae2ba916,True,41.950687,-87.6687,Ashland Ave & Grace St,,"['CREDITCARD', 'TRANSITCARD', 'KEY']",13319,347
325,325,15,False,False,a3ac213b-a135-11e9-9cda-0a87ae2ba916,True,41.8538040657915,-87.69574239850043,California Ave & 21st St,,"['CREDITCARD', 'TRANSITCARD', 'KEY']",13096,348
326,326,15,False,False,a3ac2671-a135-11e9-9cda-0a87ae2ba916,True,41.929143,-87.649077,Halsted St & Wrightwood Ave,,"['CREDITCARD', 'TRANSITCARD', 'KEY']",TA1309000061,349
327,327,15,False,False,a3ac2b9c-a135-11e9-9cda-0a87ae2ba916,True,41.895966,-87.667747,Ashland Ave & Chicago Ave,,"['CREDITCARD', 'TRANSITCARD', 'KEY']",13247,350
328,328,15,False,False,a3ac30c5-a135-11e9-9cda-0a87ae2ba916,True,41.803038,-87.606615,Cottage Grove Ave & 51st St,,"['CREDITCARD', 'TRANSITCARD', 'KEY']",TA1309000067,351
329,329,11,False,False,a3ac35ed-a135-11e9-9cda-0a87ae2ba916,True,41.77351755125,-87.5771428255,Jeffery Blvd & 67th St,,"['CREDITCARD', 'TRANSITCARD', 'KEY']",KA1503000030,352
330,330,15,False,False,a3ac3b03-a135-11e9-9cda-0a87ae2ba916,True,42.01256011541,-87.6743671152,Clark St & Touhy Ave,,"['CREDITCARD', 'TRANSITCARD', 'KEY']",RP-007,353
331,331,15,False,False,a3ac4024-a135-11e9-9cda-0a87ae2ba916,True,42.01058656284,-87.6624120948,Sheridan Rd & Greenleaf Ave,,"['CREDITCARD', 'TRANSITCARD', 'KEY']",KA1504000159,354
332,332,15,False,False,a3ac4548-a135-11e9-9cda-0a87ae2ba916,True,41.773643,-87.567514,South Shore Dr & 67th St,,"['CREDITCARD', 'TRANSITCARD', 'KEY']",KA1503000029,355
333,333,11,False,False,a3ac4a7c-a135-11e9-9cda-0a87ae2ba916,True,41.7664929373,-87.5864608775,Stony Island Ave & 71st St,,"['CREDITCARD', 'TRANSITCARD', 'KEY']",KA1503000045,356
334,334,23,False,False,a3ac54af-a135-11e9-9cda-0a87ae2ba916,True,41.90348607004,-87.6433534936,Larrabee St & Division St,,"['CREDITCARD', 'TRANSITCARD', 'KEY']",KA1504000079,359
335,335,19,False,False,a3ac6f28-a135-11e9-9cda-0a87ae2ba916,True,41.90021949323,-87.6429854676,Larrabee St & Oak St,,"['CREDITCARD', 'TRANSITCARD', 'KEY']",KA1504000116,364
336,336,15,False,False,a3ac7444-a135-11e9-9cda-0a87ae2ba916,True,41.89936843921,-87.6484798752,Halsted St & North Branch St,,"['CREDITCARD', 'TRANSITCARD', 'KEY']",KA1504000117,365
337,337,11,False,False,a3ac7978-a135-11e9-9cda-0a87ae2ba916,True,41.84163253965,-87.6574349533,Loomis St & Archer Ave,,"['CREDITCARD', 'TRANSITCARD', 'KEY']",KA1503000040,366
338,338,15,False,False,a3ac7e9a-a135-11e9-9cda-0a87ae2ba916,True,41.83069611252,-87.6559759116,Racine Ave & 35th St,,"['CREDITCARD', 'TRANSITCARD', 'KEY']",15446,367
339,339,15,False,False,a3ac83bc-a135-11e9-9cda-0a87ae2ba916,True,41.83920868403,-87.6656098589,Ashland Ave & Archer Ave,,"['CREDITCARD', 'TRANSITCARD', 'KEY']",15442,368
340,340,11,False,False,a3ac88db-a135-11e9-9cda-0a87ae2ba916,True,41.83010465416,-87.6702983089,Wood St & 35th St,,"['CREDITCARD', 'TRANSITCARD', 'KEY']",KA1503000066,369
341,341,15,False,False,a3ac8dfb-a135-11e9-9cda-0a87ae2ba916,True,41.85418424947,-87.6191537415,Calumet Ave & 21st St,,"['CREDITCARD', 'TRANSITCARD', 'KEY']",15546,370
342,342,11,False,False,a3ac9834-a135-11e9-9cda-0a87ae2ba916,True,41.89546530305,-87.7061278837,Kedzie Ave & Chicago Ave,,"['CREDITCARD', 'TRANSITCARD', 'KEY']",KA1504000114,373
343,343,23,False,False,a3ac9d43-a135-11e9-9cda-0a87ae2ba916,True,41.89841768945,-87.6865960164,Western Ave & Walton St,,"['CREDITCARD', 'TRANSITCARD', 'KEY']",KA1504000103,374
344,344,11,False,False,a3aca268-a135-11e9-9cda-0a87ae2ba916,True,41.89046879243862,-87.70260751247406,Sacramento Blvd & Franklin Blvd,,"['CREDITCARD', 'TRANSITCARD', 'KEY']",KA1504000113,375
345,345,35,False,False,a3aca790-a135-11e9-9cda-0a87ae2ba916,True,41.88949181977,-87.6882193648,Artesian Ave & Hubbard St,,"['CREDITCARD', 'TRANSITCARD', 'KEY']",15664,376
346,346,15,False,False,a3acacbc-a135-11e9-9cda-0a87ae2ba916,True,41.88460328501,-87.7063037436,Kedzie Ave & Lake St,,"['CREDITCARD', 'TRANSITCARD', 'KEY']",KA1504000106,377
347,347,11,False,False,a3acb1de-a135-11e9-9cda-0a87ae2ba916,True,41.88445395657,-87.6962981368,California Ave & Lake St,,"['CREDITCARD', 'TRANSITCARD', 'KEY']",15666,378
348,348,15,False,False,a3acb6f3-a135-11e9-9cda-0a87ae2ba916,True,41.8797877089,-87.686112808,Western Ave & Monroe St,,"['CREDITCARD', 'TRANSITCARD', 'KEY']",15667,381
349,349,19,False,False,a3acbc0b-a135-11e9-9cda-0a87ae2ba916,True,41.87474885079,-87.6864452757,Western Ave & Congress Pkwy,,"['CREDITCARD', 'TRANSITCARD', 'KEY']",15668,382
350,350,31,False,False,a3acc133-a135-11e9-9cda-0a87ae2ba916,True,41.87295,-87.66913,Paulina St & Flournoy St,,"['CREDITCARD', 'TRANSITCARD', 'KEY']",KA1504000104,383
351,351,11,False,False,a3acc649-a135-11e9-9cda-0a87ae2ba916,True,41.80183164049,-87.645213904,Halsted St & 51st St,,"['CREDITCARD', 'TRANSITCARD', 'KEY']",KA1503000010,384
352,352,11,False,False,a3accb60-a135-11e9-9cda-0a87ae2ba916,True,41.794982,-87.633124,Princeton Ave & Garfield Blvd,,"['CREDITCARD', 'TRANSITCARD', 'KEY']",KA1503000013,385
353,353,11,False,False,a3acd078-a135-11e9-9cda-0a87ae2ba916,True,41.79292964599,-87.6449900565,Halsted St & 56th St,,"['CREDITCARD', 'TRANSITCARD', 'KEY']",KA1503000011,386
354,354,11,False,False,a3acd5b1-a135-11e9-9cda-0a87ae2ba916,True,41.77938114228,-87.6446208145,Halsted St & 63rd St,,"['CREDITCARD', 'TRANSITCARD', 'KEY']",KA1503000055,388
355,355,11,False,False,a3acdae2-a135-11e9-9cda-0a87ae2ba916,True,41.78007963264,-87.6297463052,Wentworth Ave & 63rd St,,"['CREDITCARD', 'TRANSITCARD', 'KEY']",KA1503000025,390
356,356,11,False,False,a3acdff9-a135-11e9-9cda-0a87ae2ba916,True,41.76906172032,-87.6446135779,Halsted St & 69th St,,"['CREDITCARD', 'TRANSITCARD', 'KEY']",15597,391
357,357,11,False,False,a3ace51b-a135-11e9-9cda-0a87ae2ba916,True,41.76929308995,-87.6281959291,Perry Ave & 69th St,,"['CREDITCARD', 'TRANSITCARD', 'KEY']",KA1503000047,392
358,358,11,False,False,a3acea44-a135-11e9-9cda-0a87ae2ba916,True,41.76550800581,-87.616917925,Calumet Ave & 71st St,,"['CREDITCARD', 'TRANSITCARD', 'KEY']",15599,393
359,359,15,False,False,a3acef62-a135-11e9-9cda-0a87ae2ba916,True,41.870816,-87.631246,Clark St & 9th St (AMLI),,"['CREDITCARD', 'TRANSITCARD', 'KEY']",SL-009,394
360,360,11,False,False,a3acf4eb-a135-11e9-9cda-0a87ae2ba916,True,41.75712006802,-87.5758393587,Jeffery Blvd & 76th St,,"['CREDITCARD', 'TRANSITCARD', 'KEY']",KA1503000028,395
361,361,11,False,False,a3acfa38-a135-11e9-9cda-0a87ae2ba916,True,41.758768,-87.56644,Yates Blvd & 75th St,,"['CREDITCARD', 'TRANSITCARD', 'KEY']",KA1503000024,396
362,362,15,False,False,a3ad0490-a135-11e9-9cda-0a87ae2ba916,True,41.75787144829,-87.54938625,Rainbow Beach,,"['CREDITCARD', 'TRANSITCARD', 'KEY']",KA1503000049,398
363,363,11,False,False,a3ad09b2-a135-11e9-9cda-0a87ae2ba916,True,41.76218896038,-87.55927465,South Shore Dr & 74th St,,"['CREDITCARD', 'TRANSITCARD', 'KEY']",KA1503000020,399
364,364,11,False,False,a3ad0ecb-a135-11e9-9cda-0a87ae2ba916,True,41.76571903697,-87.604959713,Cottage Grove Ave & 71st St,,"['CREDITCARD', 'TRANSITCARD', 'KEY']",KA1503000003,400
365,365,11,False,False,a3ad13e4-a135-11e9-9cda-0a87ae2ba916,True,41.842733,-87.635491,Shields Ave & 28th Pl,,"['CREDITCARD', 'TRANSITCARD', 'KEY']",15443,401
366,366,15,False,False,a3ad1900-a135-11e9-9cda-0a87ae2ba916,True,41.838464,-87.635406,Shields Ave & 31st St,,"['CREDITCARD', 'TRANSITCARD', 'KEY']",KA1503000038,402
367,367,15,False,False,a3ad1e12-a135-11e9-9cda-0a87ae2ba916,True,41.83452988563,-87.6318229814,Wentworth Ave & 33rd St,,"['CREDITCARD', 'TRANSITCARD', 'KEY']",15445,403
368,368,15,False,False,a3ad2322-a135-11e9-9cda-0a87ae2ba916,True,41.830777,-87.632504,Wentworth Ave & 35th St,,"['CREDITCARD', 'TRANSITCARD', 'KEY']",KA1503000005,405
369,369,19,False,False,a3ad2843-a135-11e9-9cda-0a87ae2ba916,True,41.83127423549,-87.6087991946,Lake Park Ave & 35th St,,"['CREDITCARD', 'TRANSITCARD', 'KEY']",KA1503000004,406
370,370,11,False,False,a3ad2d57-a135-11e9-9cda-0a87ae2ba916,True,41.82301523798,-87.6265680185,State St & Pershing Rd,,"['CREDITCARD', 'TRANSITCARD', 'KEY']",15449,407
371,371,11,False,False,a3ad327e-a135-11e9-9cda-0a87ae2ba916,True,41.819102,-87.643278,Union Ave & Root St,,"['CREDITCARD', 'TRANSITCARD', 'KEY']",KA1503000032,408
372,372,11,False,False,a3ad37c2-a135-11e9-9cda-0a87ae2ba916,True,41.81620767856,-87.6348193497,Shields Ave & 43rd St,,"['CREDITCARD', 'TRANSITCARD', 'KEY']",KA1503000001,409
373,373,15,False,False,a3ad3d08-a135-11e9-9cda-0a87ae2ba916,True,41.81665889302,-87.6194124619,Prairie Ave & 43rd St,,"['CREDITCARD', 'TRANSITCARD', 'KEY']",KA1503000027,410
374,374,11,False,False,a3ad42c3-a135-11e9-9cda-0a87ae2ba916,True,41.80813391481,-87.6456165545,Halsted St & 47th Pl,,"['CREDITCARD', 'TRANSITCARD', 'KEY']",KA1503000051,411
375,375,11,False,False,a3ad47f8-a135-11e9-9cda-0a87ae2ba916,True,41.80931770924,-87.633449288,Princeton Ave & 47th St,,"['CREDITCARD', 'TRANSITCARD', 'KEY']",KA1503000009,412
376,376,15,False,False,a3ad4d1b-a135-11e9-9cda-0a87ae2ba916,True,41.81409271048,-87.5970051479,Woodlawn Ave & Lake Park Ave,,"['CREDITCARD', 'TRANSITCARD', 'KEY']",KA1503000065,413
377,377,15,False,False,a3ad523f-a135-11e9-9cda-0a87ae2ba916,True,41.870257,-87.639474,Canal St & Taylor St,,"['CREDITCARD', 'TRANSITCARD', 'KEY']",15550,414
378,378,11,False,False,a3ad5764-a135-11e9-9cda-0a87ae2ba916,True,41.80229465088,-87.6180535802,Calumet Ave & 51st St,,"['CREDITCARD', 'TRANSITCARD', 'KEY']",15470,415
379,379,15,False,False,a3ad5c90-a135-11e9-9cda-0a87ae2ba916,True,41.805772,-87.592464,Dorchester Ave & 49th St,,"['CREDITCARD', 'TRANSITCARD', 'KEY']",KA1503000069,416
380,380,19,False,False,a3ad61c2-a135-11e9-9cda-0a87ae2ba916,True,41.802406,-87.586924,Cornell Ave & Hyde Park Blvd,,"['CREDITCARD', 'TRANSITCARD', 'KEY']",KA1503000007,417
381,381,11,False,False,a3ad66e6-a135-11e9-9cda-0a87ae2ba916,True,41.79933626261,-87.6009581145,Ellis Ave & 53rd St,,"['CREDITCARD', 'TRANSITCARD', 'KEY']",KA1503000052,418
382,382,15,False,False,a3ad6c01-a135-11e9-9cda-0a87ae2ba916,True,41.79949429373,-87.5864498959,Lake Park Ave & 53rd St,,"['CREDITCARD', 'TRANSITCARD', 'KEY']",KA1503000059,419
383,383,19,False,False,a3ad711d-a135-11e9-9cda-0a87ae2ba916,True,41.79430062054,-87.6014497734,Ellis Ave & 55th St,,"['CREDITCARD', 'TRANSITCARD', 'KEY']",KA1504000076,420
384,384,11,False,False,a3ad7636-a135-11e9-9cda-0a87ae2ba916,True,41.79342945658,-87.6158532619,MLK Jr Dr & 56th St,,"['CREDITCARD', 'TRANSITCARD', 'KEY']",KA1503000073,421
385,385,11,False,False,a3ad7b51-a135-11e9-9cda-0a87ae2ba916,True,41.79156801058,-87.6078521774,DuSable Museum,,"['CREDITCARD', 'TRANSITCARD', 'KEY']",KA1503000075,422
386,386,31,False,False,a3ad8072-a135-11e9-9cda-0a87ae2ba916,True,41.791478,-87.599861,University Ave & 57th St,,"['CREDITCARD', 'TRANSITCARD', 'KEY']",KA1503000071,423
387,387,27,False,False,a3ad8587-a135-11e9-9cda-0a87ae2ba916,True,41.79172820953,-87.583945009,Museum of Science and Industry,,"['CREDITCARD', 'TRANSITCARD', 'KEY']",KA1503000074,424
388,388,15,False,False,a3ad8aa3-a135-11e9-9cda-0a87ae2ba916,True,41.78794281287,-87.5883151702,Harper Ave & 59th St,,"['CREDITCARD', 'TRANSITCARD', 'KEY']",KA1503000070,425
389,389,19,False,False,a3ad8fd9-a135-11e9-9cda-0a87ae2ba916,True,41.78509714636,-87.6010727606,Ellis Ave & 60th St,,"['CREDITCARD', 'TRANSITCARD', 'KEY']",KA1503000014,426
390,390,15,False,False,a3ad95a7-a135-11e9-9cda-0a87ae2ba916,True,41.78059901484,-87.606112388,Cottage Grove Ave & 63rd St,,"['CREDITCARD', 'TRANSITCARD', 'KEY']",KA1503000054,427
391,391,11,False,False,a3ad9ad9-a135-11e9-9cda-0a87ae2ba916,True,41.7804056457,-87.5914159893,Dorchester Ave & 63rd St,,"['CREDITCARD', 'TRANSITCARD', 'KEY']",KA1503000046,428
392,392,11,False,False,a3ada002-a135-11e9-9cda-0a87ae2ba916,True,41.77372095205,-87.60563486,Cottage Grove Ave & 67th St,,"['CREDITCARD', 'TRANSITCARD', 'KEY']",KA1503000031,429
393,393,11,False,False,a3ada52f-a135-11e9-9cda-0a87ae2ba916,True,41.78008063659,-87.6159428567,MLK Jr Dr & 63rd St,,"['CREDITCARD', 'TRANSITCARD', 'KEY']",KA1503000053,430
394,394,11,False,False,a3adaa52-a135-11e9-9cda-0a87ae2ba916,True,41.78414169317,-87.6133078304,Eberhart Ave & 61st St,,"['CREDITCARD', 'TRANSITCARD', 'KEY']",KA1503000033,431
395,395,19,False,False,a3adaf6b-a135-11e9-9cda-0a87ae2ba916,True,42.009074,-87.67419,Clark St & Lunt Ave,,"['CREDITCARD', 'TRANSITCARD', 'KEY']",KA1504000162,432
396,396,11,False,False,a3adb48a-a135-11e9-9cda-0a87ae2ba916,True,41.87359967462,-87.7048707493,Kedzie Ave & Harrison St,,"['CREDITCARD', 'TRANSITCARD', 'KEY']",KA1504000082,433
397,397,19,False,False,a3adb9a3-a135-11e9-9cda-0a87ae2ba916,True,41.86650148316,-87.68469707,Ogden Ave & Roosevelt Rd,,"['CREDITCARD', 'TRANSITCARD', 'KEY']",KA1504000101,434
398,398,11,False,False,a3adbedf-a135-11e9-9cda-0a87ae2ba916,True,41.86649278172,-87.7064961757,Kedzie Ave & Roosevelt Rd,,"['CREDITCARD', 'TRANSITCARD', 'KEY']",15682,435
399,399,11,False,False,a3adc3f6-a135-11e9-9cda-0a87ae2ba916,True,41.866624,-87.694521,Fairfield Ave & Roosevelt Rd,,"['CREDITCARD', 'TRANSITCARD', 'KEY']",KA1504000102,436
400,400,15,False,False,a3adc925-a135-11e9-9cda-0a87ae2ba916,True,41.861894,-87.693511,Washtenaw Ave & Ogden Ave,,"['CREDITCARD', 'TRANSITCARD', 'KEY']",KA1504000109,437
401,401,15,False,False,a3adce47-a135-11e9-9cda-0a87ae2ba916,True,41.85420431327,-87.7154058381,Central Park Ave & Ogden Ave,,"['CREDITCARD', 'TRANSITCARD', 'KEY']",15685,438
402,402,11,False,False,a3add365-a135-11e9-9cda-0a87ae2ba916,True,41.85353363213,-87.7050730318,Kedzie Ave & 21st St,,"['CREDITCARD', 'TRANSITCARD', 'KEY']",15686,439
403,403,11,False,False,a3add889-a135-11e9-9cda-0a87ae2ba916,True,41.8481,-87.715068,Central Park Ave & 24th St,,"['CREDITCARD', 'TRANSITCARD', 'KEY']",15687,440
404,404,11,False,False,a3addda0-a135-11e9-9cda-0a87ae2ba916,True,41.84819094491,-87.7054137458,Kedzie Ave & 24th St,,"['CREDITCARD', 'TRANSITCARD', 'KEY']",KA1504000086,441
405,405,11,False,False,a3ade2c3-a135-11e9-9cda-0a87ae2ba916,True,41.84910969176,-87.6951398068,California Ave & 23rd Pl,,"['CREDITCARD', 'TRANSITCARD', 'KEY']",15689,442
406,406,7,False,False,a3ade7de-a135-11e9-9cda-0a87ae2ba916,True,41.84456684891,-87.7159103081,Millard Ave & 26th St,,"['CREDITCARD', 'TRANSITCARD', 'KEY']",KA1504000110,443
407,407,11,False,False,a3aded13-a135-11e9-9cda-0a87ae2ba916,True,41.84447501366,-87.7020130128,Albany Ave & 26th St,,"['CREDITCARD', 'TRANSITCARD', 'KEY']",15691,444
408,408,11,False,False,a3ae687f-a135-11e9-9cda-0a87ae2ba916,True,41.84404003127,-87.6952959227,California Ave & 26th St,,"['CREDITCARD', 'TRANSITCARD', 'KEY']",15692,445
409,409,11,False,False,a3ae6e48-a135-11e9-9cda-0a87ae2ba916,True,41.84151770807,-87.6851314409,Western Ave & 28th St,,"['CREDITCARD', 'TRANSITCARD', 'KEY']",KA1504000168,446
410,410,15,False,False,a3ae737f-a135-11e9-9cda-0a87ae2ba916,True,42.00797192287,-87.6655023944,Glenwood Ave & Morse Ave,,"['CREDITCARD', 'TRANSITCARD', 'KEY']",KA1504000175,447
411,411,11,False,False,a3ae78ab-a135-11e9-9cda-0a87ae2ba916,True,42.00454962194,-87.6806661451,Warren Park East,,"['CREDITCARD', 'TRANSITCARD', 'KEY']",RP-002,448
412,412,15,False,False,a3ae7dc3-a135-11e9-9cda-0a87ae2ba916,True,42.00445062934,-87.6724024047,Clark St & Columbia Ave,,"['CREDITCARD', 'TRANSITCARD', 'KEY']",RP-008,449
413,413,11,False,False,a3ae82e0-a135-11e9-9cda-0a87ae2ba916,True,42.001785,-87.688829,Warren Park West,,"['CREDITCARD', 'TRANSITCARD', 'KEY']",RP-001,450
414,414,23,False,False,a3ae87fa-a135-11e9-9cda-0a87ae2ba916,True,42.00104377979,-87.6611982433,Sheridan Rd & Loyola Ave,,"['CREDITCARD', 'TRANSITCARD', 'KEY']",RP-009,451
415,415,11,False,False,a3ae8d13-a135-11e9-9cda-0a87ae2ba916,True,41.99416136902,-87.689438282,Western Ave & Granville Ave,,"['CREDITCARD', 'TRANSITCARD', 'KEY']",KA1504000129,452
416,416,15,False,False,a3ae923d-a135-11e9-9cda-0a87ae2ba916,True,41.99925182186,-87.6713773393,Clark St & Schreiber Ave,,"['CREDITCARD', 'TRANSITCARD', 'KEY']",KA1504000156,453
417,417,23,False,False,a3af1767-a135-11e9-9cda-0a87ae2ba916,True,41.9947796884,-87.6602845349,Broadway & Granville Ave,,"['CREDITCARD', 'TRANSITCARD', 'KEY']",15571,454
418,418,11,False,False,a3af1cec-a135-11e9-9cda-0a87ae2ba916,True,41.99023602867,-87.6933696402,Maplewood Ave & Peterson Ave,,"['CREDITCARD', 'TRANSITCARD', 'KEY']",KA1504000130,455
419,419,11,False,False,a3af2216-a135-11e9-9cda-0a87ae2ba916,True,41.991178,-87.683593,2112 W Peterson Ave,,"['CREDITCARD', 'TRANSITCARD', 'KEY']",KA1504000155,456
420,420,15,False,False,a3af2737-a135-11e9-9cda-0a87ae2ba916,True,41.99051755556753,-87.66983360052109,Clark St & Elmdale Ave,,"['CREDITCARD', 'TRANSITCARD', 'KEY']",KA1504000148,457
421,421,19,False,False,a3af2c5f-a135-11e9-9cda-0a87ae2ba916,True,41.98974251144,-87.6601406209,Broadway & Thorndale Ave,,"['CREDITCARD', 'TRANSITCARD', 'KEY']",15575,458
422,422,19,False,False,a3af317e-a135-11e9-9cda-0a87ae2ba916,True,41.98403669612,-87.6523104689,Lakefront Trail & Bryn Mawr Ave,,"['CREDITCARD', 'TRANSITCARD', 'KEY']",KA1504000152,459
423,423,15,False,False,a3af368c-a135-11e9-9cda-0a87ae2ba916,True,41.983593,-87.669154,Clark St & Bryn Mawr Ave,,"['CREDITCARD', 'TRANSITCARD', 'KEY']",KA1504000151,460
424,424,15,False,False,a3af3bac-a135-11e9-9cda-0a87ae2ba916,True,41.9840446107,-87.6602738295,Broadway & Ridge Ave,,"['CREDITCARD', 'TRANSITCARD', 'KEY']",15578,461
425,425,15,False,False,a3af40f1-a135-11e9-9cda-0a87ae2ba916,True,41.979762,-87.67753,Winchester (Ravenswood) Ave & Balmoral Ave,,"['CREDITCARD', 'TRANSITCARD', 'KEY']",KA1504000147,462
426,426,19,False,False,a3af460f-a135-11e9-9cda-0a87ae2ba916,True,41.9779966544,-87.6680471047,Clark St & Berwyn Ave,,"['CREDITCARD', 'TRANSITCARD', 'KEY']",KA1504000146,463
427,427,15,False,False,a3af4b26-a135-11e9-9cda-0a87ae2ba916,True,41.97561480459,-87.6794590387,Damen Ave & Foster Ave,,"['CREDITCARD', 'TRANSITCARD', 'KEY']",KA1504000149,464
428,428,23,False,False,a3af52bc-a135-11e9-9cda-0a87ae2ba916,True,41.9716,-87.650154,Marine Dr & Ainslie St,,"['CREDITCARD', 'TRANSITCARD', 'KEY']",KA1504000171,465
429,429,11,False,False,a3af5804-a135-11e9-9cda-0a87ae2ba916,True,42.01213227742,-87.6829126443,Ridge Blvd & Touhy Ave,,"['CREDITCARD', 'TRANSITCARD', 'KEY']",RP-006,466
430,430,15,False,False,a3af5d1c-a135-11e9-9cda-0a87ae2ba916,True,42.0085943972,-87.6904922389,Western Ave & Lunt Ave,,"['CREDITCARD', 'TRANSITCARD', 'KEY']",RP-005,467
431,431,11,False,False,a3af624c-a135-11e9-9cda-0a87ae2ba916,True,41.98366470886,-87.6964225611,Budlong Woods Library,,"['CREDITCARD', 'TRANSITCARD', 'KEY']",15585,468
432,432,15,False,False,a3af6c2f-a135-11e9-9cda-0a87ae2ba916,True,41.98039423475,-87.7161149615,St. Louis Ave & Balmoral Ave,,"['CREDITCARD', 'TRANSITCARD', 'KEY']",KA1504000161,469
433,433,11,False,False,a3af71a9-a135-11e9-9cda-0a87ae2ba916,True,41.975672,-87.709261,Kedzie Ave & Foster Ave,,"['CREDITCARD', 'TRANSITCARD', 'KEY']",KA1504000128,470
434,434,15,False,False,a3af76f8-a135-11e9-9cda-0a87ae2ba916,True,41.97563272521,-87.7014194389,Francisco Ave & Foster Ave,,"['CREDITCARD', 'TRANSITCARD', 'KEY']",KA1504000160,471
435,435,15,False,False,a3af7c0e-a135-11e9-9cda-0a87ae2ba916,True,41.97491129677,-87.6925025594,Lincoln Ave & Winona St,,"['CREDITCARD', 'TRANSITCARD', 'KEY']",KA1504000078,472
436,436,15,False,False,a3af8123-a135-11e9-9cda-0a87ae2ba916,True,41.96835449363,-87.7118306675,Christiana Ave & Lawrence Ave,,"['CREDITCARD', 'TRANSITCARD', 'KEY']",15615,474
437,437,15,False,False,a3af8642-a135-11e9-9cda-0a87ae2ba916,True,41.968987,-87.696027,Washtenaw Ave & Lawrence Ave,,"['CREDITCARD', 'TRANSITCARD', 'KEY']",KA1504000080,475
438,438,15,False,False,a3af8b51-a135-11e9-9cda-0a87ae2ba916,True,41.96668636205,-87.7080519806,Kedzie Ave & Leland Ave,,"['CREDITCARD', 'TRANSITCARD', 'KEY']",KA1504000126,476
439,439,11,False,False,a3af9064-a135-11e9-9cda-0a87ae2ba916,True,41.965875,-87.700825,Manor Ave & Leland Ave,,"['CREDITCARD', 'TRANSITCARD', 'KEY']",KA1504000127,477
440,440,15,False,False,a3af956e-a135-11e9-9cda-0a87ae2ba916,True,41.96590013976,-87.6936384935,Rockwell St & Eastwood Ave,,"['CREDITCARD', 'TRANSITCARD', 'KEY']",KA1504000093,478
441,441,15,False,False,a3af9a83-a135-11e9-9cda-0a87ae2ba916,True,41.96115407569,-87.7165690733,Drake Ave & Montrose Ave,,"['CREDITCARD', 'TRANSITCARD', 'KEY']",KA1504000097,479
442,442,11,False,False,a3af9f99-a135-11e9-9cda-0a87ae2ba916,True,41.961041,-87.705866,Albany Ave & Montrose Ave,,"['CREDITCARD', 'TRANSITCARD', 'KEY']",15621,480
443,443,15,False,False,a3afa4c3-a135-11e9-9cda-0a87ae2ba916,True,41.961068,-87.695439,California Ave & Montrose Ave,,"['CREDITCARD', 'TRANSITCARD', 'KEY']",15622,481
444,444,15,False,False,a3afa9dc-a135-11e9-9cda-0a87ae2ba916,True,41.96152593287,-87.6911650414,Campbell Ave & Montrose Ave,,"['CREDITCARD', 'TRANSITCARD', 'KEY']",15623,482
445,445,19,False,False,a3afaef3-a135-11e9-9cda-0a87ae2ba916,True,41.953393,-87.732002,Avondale Ave & Irving Park Rd,,"['CREDITCARD', 'TRANSITCARD', 'KEY']",15624,483
446,446,15,False,False,a3afb401-a135-11e9-9cda-0a87ae2ba916,True,41.95400483876,-87.7191281797,Monticello Ave & Irving Park Rd,,"['CREDITCARD', 'TRANSITCARD', 'KEY']",KA1504000139,484
447,447,15,False,False,a3afb917-a135-11e9-9cda-0a87ae2ba916,True,41.95358617895,-87.7093107999,Sawyer Ave & Irving Park Rd,,"['CREDITCARD', 'TRANSITCARD', 'KEY']",KA1504000096,485
448,448,15,False,False,a3afbe2e-a135-11e9-9cda-0a87ae2ba916,True,41.95434085219,-87.6860796243,Oakley Ave & Irving Park Rd,,"['CREDITCARD', 'TRANSITCARD', 'KEY']",KA1504000158,486
449,449,19,False,False,a3afc347-a135-11e9-9cda-0a87ae2ba916,True,41.95216219326,-87.698051113,California Ave & Byron St,,"['CREDITCARD', 'TRANSITCARD', 'KEY']",15628,487
450,450,11,False,False,a3afc858-a135-11e9-9cda-0a87ae2ba916,True,41.946264,-87.731023,Pulaski Rd & Eddy St (Temp),,"['CREDITCARD', 'TRANSITCARD', 'KEY']",KA1504000141,488
451,451,15,False,False,a3afcd70-a135-11e9-9cda-0a87ae2ba916,True,41.947326,-87.717582,Drake Ave & Addison St,,"['CREDITCARD', 'TRANSITCARD', 'KEY']",KA1504000142,489
452,452,15,False,False,a3afd294-a135-11e9-9cda-0a87ae2ba916,True,41.94524356848,-87.7066499009,Troy St & Elston Ave,,"['CREDITCARD', 'TRANSITCARD', 'KEY']",15631,490
453,453,15,False,False,a3afd7ab-a135-11e9-9cda-0a87ae2ba916,True,41.9466358306,-87.694614758,Talman Ave & Addison St,,"['CREDITCARD', 'TRANSITCARD', 'KEY']",15632,491
454,454,15,False,False,a3afdcbf-a135-11e9-9cda-0a87ae2ba916,True,41.946655,-87.683359,Leavitt St & Addison St,,"['CREDITCARD', 'TRANSITCARD', 'KEY']",KA1504000143,492
455,455,11,False,False,a3afe1dc-a135-11e9-9cda-0a87ae2ba916,True,41.943034,-87.687288,Western Ave & Roscoe St,,"['CREDITCARD', 'TRANSITCARD', 'KEY']",15634,493
456,456,15,False,False,a3afe6ed-a135-11e9-9cda-0a87ae2ba916,True,41.98239708485,-87.7089225202,Kedzie Ave & Bryn Mawr Ave,,"['CREDITCARD', 'TRANSITCARD', 'KEY']",KA1504000167,494
457,457,11,False,False,a3afebff-a135-11e9-9cda-0a87ae2ba916,True,41.96110801623,-87.7289701012,Keystone Ave & Montrose Ave,,"['CREDITCARD', 'TRANSITCARD', 'KEY']",KA1504000164,495
458,458,11,False,False,a3aff10c-a135-11e9-9cda-0a87ae2ba916,True,41.939408,-87.723574,Avers Ave & Belmont Ave,,"['CREDITCARD', 'TRANSITCARD', 'KEY']",15640,496
459,459,15,False,False,a3aff616-a135-11e9-9cda-0a87ae2ba916,True,41.939398,-87.711561,Kimball Ave & Belmont Ave,,"['CREDITCARD', 'TRANSITCARD', 'KEY']",KA150400009X,497
460,460,19,False,False,a3affb22-a135-11e9-9cda-0a87ae2ba916,True,41.93842879148,-87.698007756,California Ave & Fletcher St,,"['CREDITCARD', 'TRANSITCARD', 'KEY']",15642,498
461,461,15,False,False,a3b00055-a135-11e9-9cda-0a87ae2ba916,True,41.93058537138,-87.7237773635,Kosciuszko Park,,"['CREDITCARD', 'TRANSITCARD', 'KEY']",15643,499
462,462,15,False,False,a3b0060d-a135-11e9-9cda-0a87ae2ba916,True,41.93533728263,-87.7168892935,Central Park Ave & Elbridge Ave,,"['CREDITCARD', 'TRANSITCARD', 'KEY']",15644,500
463,463,15,False,False,a3b00b3a-a135-11e9-9cda-0a87ae2ba916,True,41.93190196886,-87.7011951301,Richmond St & Diversey Ave,,"['CREDITCARD', 'TRANSITCARD', 'KEY']",15645,501
464,464,15,False,False,a3b0104c-a135-11e9-9cda-0a87ae2ba916,True,41.92669,-87.697668,California Ave & Altgeld St,,"['CREDITCARD', 'TRANSITCARD', 'KEY']",15646,502
465,465,15,False,False,a3b01578-a135-11e9-9cda-0a87ae2ba916,True,41.924398819,-87.7154410355,Drake Ave & Fullerton Ave,,"['CREDITCARD', 'TRANSITCARD', 'KEY']",KA1504000090,503
466,466,15,False,False,a3b01a86-a135-11e9-9cda-0a87ae2ba916,True,41.92463247165,-87.6893070063,Campbell Ave & Fullerton Ave,,"['CREDITCARD', 'TRANSITCARD', 'KEY']",15648,504
467,467,15,False,False,a3b01f9c-a135-11e9-9cda-0a87ae2ba916,True,41.92409085038,-87.6764600747,Winchester Ave & Elston Ave,,"['CREDITCARD', 'TRANSITCARD', 'KEY']",KA1504000140,505
468,468,15,False,False,a3b024aa-a135-11e9-9cda-0a87ae2ba916,True,41.917108034789315,-87.71022096276283,Spaulding Ave & Armitage Ave,,"['CREDITCARD', 'TRANSITCARD', 'KEY']",15650,506
469,469,19,False,False,a3b029be-a135-11e9-9cda-0a87ae2ba916,True,41.91751339399,-87.7018089555,Humboldt Blvd & Armitage Ave,,"['CREDITCARD', 'TRANSITCARD', 'KEY']",15651,507
470,470,15,False,False,a3b02ef1-a135-11e9-9cda-0a87ae2ba916,True,41.90965687563,-87.7166319516,Central Park Ave & North Ave,,"['CREDITCARD', 'TRANSITCARD', 'KEY']",15652,508
471,471,15,False,False,a3b0b291-a135-11e9-9cda-0a87ae2ba916,True,41.90976930169,-87.7052804871,Troy St & North Ave,,"['CREDITCARD', 'TRANSITCARD', 'KEY']",15653,509
472,472,11,False,False,a3b0b801-a135-11e9-9cda-0a87ae2ba916,True,41.90270659438,-87.709219571,Spaulding Ave & Division St,,"['CREDITCARD', 'TRANSITCARD', 'KEY']",15654,510
473,473,15,False,False,a3b0bd42-a135-11e9-9cda-0a87ae2ba916,True,41.91402671273,-87.705126462,Albany Ave & Bloomingdale Ave,,"['CREDITCARD', 'TRANSITCARD', 'KEY']",15655,511
474,474,11,False,False,a3b0ccad-a135-11e9-9cda-0a87ae2ba916,True,42.019276,-87.68452,Ridge Blvd & Howard St,,"['CREDITCARD', 'TRANSITCARD', 'KEY']",514,514
475,475,19,False,False,a3b0d1d5-a135-11e9-9cda-0a87ae2ba916,True,42.019159,-87.673573,Paulina St & Howard St,,"['CREDITCARD', 'TRANSITCARD', 'KEY']",515,515
476,476,11,False,False,a3b0d6ec-a135-11e9-9cda-0a87ae2ba916,True,42.015963,-87.675005,Clark St & Jarvis Ave,,"['CREDITCARD', 'TRANSITCARD', 'KEY']",517,517
477,477,11,False,False,a3b0dc1f-a135-11e9-9cda-0a87ae2ba916,True,41.885502,-87.716866,Conservatory Dr & Lake St,,"['CREDITCARD', 'TRANSITCARD', 'KEY']",518,518
478,478,11,False,False,a3b0e141-a135-11e9-9cda-0a87ae2ba916,True,42.016977,-87.677725,Wolcott Ave & Fargo Ave,,"['CREDITCARD', 'TRANSITCARD', 'KEY']",519,519
479,479,19,False,False,a3b0e657-a135-11e9-9cda-0a87ae2ba916,True,42.015962,-87.66857,Greenview Ave & Jarvis Ave,,"['CREDITCARD', 'TRANSITCARD', 'KEY']",520,520
480,480,11,False,False,a3b0eb93-a135-11e9-9cda-0a87ae2ba916,True,42.019537,-87.669563,Bosworth Ave & Howard St,,"['CREDITCARD', 'TRANSITCARD', 'KEY']",16806,522
481,481,15,False,False,a3b0f0b6-a135-11e9-9cda-0a87ae2ba916,True,42.021019,-87.665086,Eastlake Ter & Rogers Ave,,"['CREDITCARD', 'TRANSITCARD', 'KEY']",523,523
482,482,7,False,False,a3b0f5c9-a135-11e9-9cda-0a87ae2ba916,True,41.894887,-87.774704,Austin Blvd & Chicago Ave,,"['CREDITCARD', 'TRANSITCARD', 'KEY']",16921,524
483,483,15,False,False,a3b0fae6-a135-11e9-9cda-0a87ae2ba916,True,42.012701,-87.666058,Glenwood Ave & Touhy Ave,,"['CREDITCARD', 'TRANSITCARD', 'KEY']",525,525
484,484,11,False,False,a3b0fff9-a135-11e9-9cda-0a87ae2ba916,True,42.012342,-87.688243,Oakley Ave & Touhy Ave,,"['CREDITCARD', 'TRANSITCARD', 'KEY']",RP-004,526
485,485,15,False,False,a3b1050d-a135-11e9-9cda-0a87ae2ba916,True,42.018901,-87.690048,Western Ave & Howard St,,"['CREDITCARD', 'TRANSITCARD', 'KEY']",527,527
486,486,11,False,False,a3b10a40-a135-11e9-9cda-0a87ae2ba916,True,41.885409,-87.726491,Pulaski Rd & Lake St,,"['CREDITCARD', 'TRANSITCARD', 'KEY']",528,528
487,487,11,False,False,a3b10f66-a135-11e9-9cda-0a87ae2ba916,True,41.886841,-87.745261,Cicero Ave & Lake St,,"['CREDITCARD', 'TRANSITCARD', 'KEY']",16903,529
488,488,11,False,False,a3b11480-a135-11e9-9cda-0a87ae2ba916,True,41.887832,-87.755527,Laramie Ave & Kinzie St,,"['CREDITCARD', 'TRANSITCARD', 'KEY']",530,530
489,489,11,False,False,a3b11993-a135-11e9-9cda-0a87ae2ba916,True,41.887664,-87.765469,Central Ave & Lake St,,"['CREDITCARD', 'TRANSITCARD', 'KEY']",16905,531
490,490,11,False,False,a3b11ea4-a135-11e9-9cda-0a87ae2ba916,True,41.887919,-87.774446,Austin Blvd & Lake St,,"['CREDITCARD', 'TRANSITCARD', 'KEY']",16906,532
491,491,11,False,False,a3b123c5-a135-11e9-9cda-0a87ae2ba916,True,41.875679,-87.71547,Central Park Blvd & 5th Ave,,"['CREDITCARD', 'TRANSITCARD', 'KEY']",16907,533
492,492,11,False,False,a3b128de-a135-11e9-9cda-0a87ae2ba916,True,41.88085,-87.727907,Karlov Ave & Madison St,,"['CREDITCARD', 'TRANSITCARD', 'KEY']",534,534
493,493,11,False,False,a3b12dfb-a135-11e9-9cda-0a87ae2ba916,True,41.874325,-87.725704,Pulaski Rd & Congress Pkwy,,"['CREDITCARD', 'TRANSITCARD', 'KEY']",535,535
494,494,11,False,False,a3b1330c-a135-11e9-9cda-0a87ae2ba916,True,41.885928,-87.73541,Kostner Ave & Lake St,,"['CREDITCARD', 'TRANSITCARD', 'KEY']",536,536
495,495,11,False,False,a3b13836-a135-11e9-9cda-0a87ae2ba916,True,41.880708,-87.741018,Kenton Ave & Madison St,,"['CREDITCARD', 'TRANSITCARD', 'KEY']",537,537
496,496,11,False,False,a3b13e66-a135-11e9-9cda-0a87ae2ba916,True,41.872131,-87.746619,Cicero Ave & Flournoy St,,"['CREDITCARD', 'TRANSITCARD', 'KEY']",16912,538
497,497,11,False,False,a3b143aa-a135-11e9-9cda-0a87ae2ba916,True,41.877613,-87.745405,Cicero Ave & Quincy St,,"['CREDITCARD', 'TRANSITCARD', 'KEY']",16913,539
498,498,11,False,False,a3b148bf-a135-11e9-9cda-0a87ae2ba916,True,41.880207,-87.755337,Laramie Ave & Madison St,,"['CREDITCARD', 'TRANSITCARD', 'KEY']",540,540
499,499,11,False,False,a3b1c47b-a135-11e9-9cda-0a87ae2ba916,True,41.872993,-87.764499,Central Ave & Harrison St,,"['CREDITCARD', 'TRANSITCARD', 'KEY']",16915,541
500,500,11,False,False,a3b1ca28-a135-11e9-9cda-0a87ae2ba916,True,41.880121,-87.763238,Central Ave & Madison St,,"['CREDITCARD', 'TRANSITCARD', 'KEY']",16916,542
501,501,11,False,False,a3b1cf80-a135-11e9-9cda-0a87ae2ba916,True,41.875806,-87.755285,Laramie Ave & Gladys Ave,,"['CREDITCARD', 'TRANSITCARD', 'KEY']",543,543
502,502,11,False,False,a3b1d532-a135-11e9-9cda-0a87ae2ba916,True,41.880281,-87.774453,Austin Blvd & Madison St,,"['CREDITCARD', 'TRANSITCARD', 'KEY']",16918,544
503,503,11,False,False,a3b1db23-a135-11e9-9cda-0a87ae2ba916,True,41.877917,-87.735737,Kostner Ave & Adams St,,"['CREDITCARD', 'TRANSITCARD', 'KEY']",545,545
504,504,11,False,False,a3b1e065-a135-11e9-9cda-0a87ae2ba916,True,41.823192,-87.676597,Damen Ave & Pershing Rd,,"['CREDITCARD', 'TRANSITCARD', 'KEY']",546,546
505,505,11,False,False,a3b1e588-a135-11e9-9cda-0a87ae2ba916,True,41.823465,-87.665577,Ashland Ave & Pershing Rd,,"['CREDITCARD', 'TRANSITCARD', 'KEY']",16932,547
506,506,7,False,False,a3b1eaa7-a135-11e9-9cda-0a87ae2ba916,True,41.823613,-87.650931,Morgan St & Pershing Rd,,"['CREDITCARD', 'TRANSITCARD', 'KEY']",16933,548
507,507,11,False,False,a3b1efd6-a135-11e9-9cda-0a87ae2ba916,True,41.813996,-87.666589,Marshfield Ave & 44th St,,"['CREDITCARD', 'TRANSITCARD', 'KEY']",549,549
508,508,11,False,False,a3b1f4fb-a135-11e9-9cda-0a87ae2ba916,True,41.894958,-87.764902,Central Ave & Chicago Ave,,"['CREDITCARD', 'TRANSITCARD', 'KEY']",16920,550
509,509,11,False,False,a3b1fa1c-a135-11e9-9cda-0a87ae2ba916,True,41.808227,-87.67718,Hoyne Ave & 47th St,,"['CREDITCARD', 'TRANSITCARD', 'KEY']",KA1504000091,551
510,510,11,False,False,a3b1ff34-a135-11e9-9cda-0a87ae2ba916,True,41.80887,-87.66454,Ashland Ave & McDowell Ave,,"['CREDITCARD', 'TRANSITCARD', 'KEY']",16937,552
511,511,11,False,False,a3b2044b-a135-11e9-9cda-0a87ae2ba916,True,41.80839,-87.656526,Elizabeth St & 47th St,,"['CREDITCARD', 'TRANSITCARD', 'KEY']",553,553
512,512,7,False,False,a3b20960-a135-11e9-9cda-0a87ae2ba916,True,41.800908,-87.674684,Damen Ave & 51st St,,"['CREDITCARD', 'TRANSITCARD', 'KEY']",554,554
513,513,11,False,False,a3b20e8a-a135-11e9-9cda-0a87ae2ba916,True,41.803023,-87.664699,Ashland Ave & 50th St,,"['CREDITCARD', 'TRANSITCARD', 'KEY']",16940,555
514,514,7,False,False,a3b213af-a135-11e9-9cda-0a87ae2ba916,True,41.799659,-87.657195,Throop St & 52nd St,,"['CREDITCARD', 'TRANSITCARD', 'KEY']",556,556
515,515,11,False,False,a3b218cd-a135-11e9-9cda-0a87ae2ba916,True,41.794087,-87.675478,Seeley Ave & Garfield Blvd,,"['CREDITCARD', 'TRANSITCARD', 'KEY']",557,557
516,516,11,False,False,a3b21de7-a135-11e9-9cda-0a87ae2ba916,True,41.792822,-87.664429,Ashland Ave & Garfield Blvd,,"['CREDITCARD', 'TRANSITCARD', 'KEY']",16943,558
517,517,11,False,False,a3b222fc-a135-11e9-9cda-0a87ae2ba916,True,41.794228,-87.655073,Racine Ave & Garfield Blvd,,"['CREDITCARD', 'TRANSITCARD', 'KEY']",559,559
518,518,11,False,False,a3b22815-a135-11e9-9cda-0a87ae2ba916,True,41.786833,-87.666215,Marshfield Ave & 59th St,,"['CREDITCARD', 'TRANSITCARD', 'KEY']",560,560
519,519,11,False,False,a3b22d3d-a135-11e9-9cda-0a87ae2ba916,True,41.78602,-87.674167,Damen Ave & 59th St,,"['CREDITCARD', 'TRANSITCARD', 'KEY']",561,561
520,520,11,False,False,a3b23263-a135-11e9-9cda-0a87ae2ba916,True,41.783189,-87.654372,Racine Ave & 61st St,,"['CREDITCARD', 'TRANSITCARD', 'KEY']",562,562
521,521,11,False,False,a3b23785-a135-11e9-9cda-0a87ae2ba916,True,41.779374,-87.664843,Ashland Ave & 63rd St,,"['CREDITCARD', 'TRANSITCARD', 'KEY']",16948,563
522,522,11,False,False,a3b23cb8-a135-11e9-9cda-0a87ae2ba916,True,41.775393,-87.654308,Racine Ave & 65th St,,"['CREDITCARD', 'TRANSITCARD', 'KEY']",564,564
523,523,7,False,False,a3b241df-a135-11e9-9cda-0a87ae2ba916,True,41.774074,-87.663815,Ashland Ave & 66th St,,"['CREDITCARD', 'TRANSITCARD', 'KEY']",16950,565
524,524,11,False,False,a3b24701-a135-11e9-9cda-0a87ae2ba916,True,41.768726,-87.664069,Ashland Ave & 69th St,,"['CREDITCARD', 'TRANSITCARD', 'KEY']",16951,566
525,525,11,False,False,a3b24c1f-a135-11e9-9cda-0a87ae2ba916,True,41.768938,-87.652934,May St & 69th St,,"['CREDITCARD', 'TRANSITCARD', 'KEY']",567,567
526,526,7,False,False,a3b2513d-a135-11e9-9cda-0a87ae2ba916,True,41.75797,-87.63121,Vincennes Ave & 75th St,,"['CREDITCARD', 'TRANSITCARD', 'KEY']",16953,568
527,527,11,False,False,a3b25656-a135-11e9-9cda-0a87ae2ba916,True,41.75916,-87.595751,Woodlawn Ave & 75th St,,"['CREDITCARD', 'TRANSITCARD', 'KEY']",569,569
528,528,7,False,False,a3b25b6d-a135-11e9-9cda-0a87ae2ba916,True,41.75849,-87.60641,Evans Ave & 75th St,,"['CREDITCARD', 'TRANSITCARD', 'KEY']",570,570
529,529,11,False,False,a3b26084-a135-11e9-9cda-0a87ae2ba916,True,41.758361,-87.614138,Vernon Ave & 75th St,,"['CREDITCARD', 'TRANSITCARD', 'KEY']",571,571
530,530,11,False,False,a3b2659d-a135-11e9-9cda-0a87ae2ba916,True,41.756971,-87.624621,State St & 76th St,,"['CREDITCARD', 'TRANSITCARD', 'KEY']",572,572
531,531,11,False,False,a3b26acf-a135-11e9-9cda-0a87ae2ba916,True,41.750794,-87.624424,State St & 79th St,,"['CREDITCARD', 'TRANSITCARD', 'KEY']",573,573
532,532,11,False,False,a3b26fee-a135-11e9-9cda-0a87ae2ba916,True,41.75094,-87.61379,Vernon Ave & 79th St,,"['CREDITCARD', 'TRANSITCARD', 'KEY']",574,574
533,533,11,False,False,a3b2767f-a135-11e9-9cda-0a87ae2ba916,True,41.753174,-87.605026,Cottage Grove Ave & 78th St,,"['CREDITCARD', 'TRANSITCARD', 'KEY']",575,575
534,534,11,False,False,a3b27bcf-a135-11e9-9cda-0a87ae2ba916,True,41.751294,-87.597552,Greenwood Ave & 79th St,,"['CREDITCARD', 'TRANSITCARD', 'KEY']",576,576
535,535,11,False,False,a3b2810e-a135-11e9-9cda-0a87ae2ba916,True,41.751173,-87.585337,Stony Island Ave & South Chicago Ave,,"['CREDITCARD', 'TRANSITCARD', 'KEY']",577,577
536,536,11,False,False,a3b2862e-a135-11e9-9cda-0a87ae2ba916,True,41.751785,-87.578496,Bennett Ave & 79th St,,"['CREDITCARD', 'TRANSITCARD', 'KEY']",16970,578
537,537,11,False,False,a3b28b4a-a135-11e9-9cda-0a87ae2ba916,True,41.75182,-87.565211,Phillips Ave & 79th St,,"['CREDITCARD', 'TRANSITCARD', 'KEY']",579,579
538,538,11,False,False,a3b2905a-a135-11e9-9cda-0a87ae2ba916,True,41.751731,-87.552812,Exchange Ave & 79th St,,"['CREDITCARD', 'TRANSITCARD', 'KEY']",580,580
539,539,11,False,False,a3b2956a-a135-11e9-9cda-0a87ae2ba916,True,41.744615,-87.551208,Commercial Ave & 83rd St,,"['CREDITCARD', 'TRANSITCARD', 'KEY']",TA1309000051,581
540,540,11,False,False,a3b29a90-a135-11e9-9cda-0a87ae2ba916,True,41.744531,-87.56506,Phillips Ave & 83rd St,,"['CREDITCARD', 'TRANSITCARD', 'KEY']",582,582
541,541,11,False,False,a3b29fae-a135-11e9-9cda-0a87ae2ba916,True,41.746559,-87.586005,Stony Island Ave & 82nd St,,"['CREDITCARD', 'TRANSITCARD', 'KEY']",583,583
542,542,11,False,False,a3b2a4ca-a135-11e9-9cda-0a87ae2ba916,True,41.744123,-87.599034,Ellis Ave & 83rd St,,"['CREDITCARD', 'TRANSITCARD', 'KEY']",584,584
543,543,11,False,False,a3b2a9e7-a135-11e9-9cda-0a87ae2ba916,True,41.743441,-87.604836,Cottage Grove Ave & 83rd St,,"['CREDITCARD', 'TRANSITCARD', 'KEY']",585,585
544,544,11,False,False,a3b2af02-a135-11e9-9cda-0a87ae2ba916,True,41.743116,-87.6148,MLK Jr Dr & 83rd St,,"['CREDITCARD', 'TRANSITCARD', 'KEY']",586,586
545,545,11,False,False,a3b2b419-a135-11e9-9cda-0a87ae2ba916,True,41.743316,-87.622849,Wabash Ave & 83rd St,,"['CREDITCARD', 'TRANSITCARD', 'KEY']",587,587
546,546,11,False,False,a3b2b92c-a135-11e9-9cda-0a87ae2ba916,True,41.743921,-87.575225,South Chicago Ave & 83rd St,,"['CREDITCARD', 'TRANSITCARD', 'KEY']",588,588
547,547,11,False,False,a3b2be3a-a135-11e9-9cda-0a87ae2ba916,True,41.954468,-87.749594,Milwaukee Ave & Cuyler Ave,,"['CREDITCARD', 'TRANSITCARD', 'KEY']",16991,589
548,548,11,False,False,a3b2c354-a135-11e9-9cda-0a87ae2ba916,True,41.953733,-87.740569,Kilbourn Ave & Irving Park Rd,,"['CREDITCARD', 'TRANSITCARD', 'KEY']",590,590
549,549,15,False,False,a3b2c87c-a135-11e9-9cda-0a87ae2ba916,True,41.948818,-87.74002,Kilbourn Ave & Milwaukee Ave,,"['CREDITCARD', 'TRANSITCARD', 'KEY']",16994,591
550,550,11,False,False,a3b2cd97-a135-11e9-9cda-0a87ae2ba916,True,41.960631,-87.745359,Knox Ave & Montrose Ave,,"['CREDITCARD', 'TRANSITCARD', 'KEY']",592,592
551,551,11,False,False,a3b2d2b7-a135-11e9-9cda-0a87ae2ba916,True,41.787539,-87.644874,Halsted St & 59th St,,"['CREDITCARD', 'TRANSITCARD', 'KEY']",593,593
552,552,11,False,False,a3b2d7d9-a135-11e9-9cda-0a87ae2ba916,True,41.805661,-87.683392,Western Blvd & 48th Pl,,"['CREDITCARD', 'TRANSITCARD', 'KEY']",594,594
553,553,11,False,False,a3b2dcf0-a135-11e9-9cda-0a87ae2ba916,True,41.736646,-87.622634,Wabash Ave & 87th St,,"['CREDITCARD', 'TRANSITCARD', 'KEY']",595,595
554,554,15,False,False,a3b2e20c-a135-11e9-9cda-0a87ae2ba916,True,42.048214,-87.683485,Benson Ave & Church St,35.0,"['CREDITCARD', 'TRANSITCARD', 'KEY']",596,596
555,555,15,False,False,a3b2e72c-a135-11e9-9cda-0a87ae2ba916,True,42.032562,-87.679101,Chicago Ave & Washington St,35.0,"['CREDITCARD', 'TRANSITCARD', 'KEY']",E002,597
556,556,15,False,False,a3b2ec43-a135-11e9-9cda-0a87ae2ba916,True,42.025784,-87.684107,Elmwood Ave & Austin St,35.0,"['CREDITCARD', 'TRANSITCARD', 'KEY']",598,598
557,557,15,False,False,a3b2f15e-a135-11e9-9cda-0a87ae2ba916,True,42.039742,-87.699413,Valli Produce - Evanston Plaza,35.0,"['CREDITCARD', 'TRANSITCARD', 'KEY']",599,599
558,558,15,False,False,a3b2f698-a135-11e9-9cda-0a87ae2ba916,True,42.048308,-87.698224,Dodge Ave & Church St,35.0,"['CREDITCARD', 'TRANSITCARD', 'KEY']",600,600
559,559,15,False,False,a3b2fbb6-a135-11e9-9cda-0a87ae2ba916,True,42.063598,-87.69873,Central St Metra,35.0,"['CREDITCARD', 'TRANSITCARD', 'KEY']",E006,601
560,560,15,False,False,a3b300d3-a135-11e9-9cda-0a87ae2ba916,True,42.064313,-87.686152,Central St & Girard Ave,35.0,"['CREDITCARD', 'TRANSITCARD', 'KEY']",E007,602
561,561,15,False,False,a3b305e7-a135-11e9-9cda-0a87ae2ba916,True,42.050491,-87.677821,Chicago Ave & Sheridan Rd,35.0,"['CREDITCARD', 'TRANSITCARD', 'KEY']",E008,603
562,562,15,False,False,a3b30b06-a135-11e9-9cda-0a87ae2ba916,True,42.058239,-87.677432,Sheridan Rd & Noyes St (NU),35.0,"['CREDITCARD', 'TRANSITCARD', 'KEY']",604,604
563,563,15,False,False,a3b310ac-a135-11e9-9cda-0a87ae2ba916,True,42.052939,-87.673447,University Library (NU),35.0,"['CREDITCARD', 'TRANSITCARD', 'KEY']",605,605
564,564,11,False,False,a3b35885-a135-11e9-9cda-0a87ae2ba916,True,41.92459,-87.72785,Keystone Ave & Fullerton Ave,,"['CREDITCARD', 'TRANSITCARD', 'KEY']",16010,619
565,565,15,False,False,a3b35e21-a135-11e9-9cda-0a87ae2ba916,True,41.898203,-87.637536,Orleans St & Chestnut St (NEXT Apts),,"['CREDITCARD', 'TRANSITCARD', 'KEY']",620,620
566,566,15,False,False,a3b3634c-a135-11e9-9cda-0a87ae2ba916,True,41.884114,-87.654264,Aberdeen St & Randolph St,,"['CREDITCARD', 'TRANSITCARD', 'KEY']",18062,621
567,567,15,False,False,a3b3686c-a135-11e9-9cda-0a87ae2ba916,True,41.900363,-87.696704,California Ave & Cortez St,,"['CREDITCARD', 'TRANSITCARD', 'KEY']",17660,622
568,568,43,False,False,a3b36d8a-a135-11e9-9cda-0a87ae2ba916,True,41.872773,-87.623981,Michigan Ave & 8th St,,"['CREDITCARD', 'TRANSITCARD', 'KEY']",623,623
569,569,15,False,False,a3b372b1-a135-11e9-9cda-0a87ae2ba916,True,41.876268,-87.629155,Dearborn St & Van Buren St,,"['CREDITCARD', 'TRANSITCARD', 'KEY']",624,624
570,570,15,False,False,a3b377cb-a135-11e9-9cda-0a87ae2ba916,True,42.041691,-87.680687,Chicago Ave & Dempster St,35.0,"['CREDITCARD', 'TRANSITCARD', 'KEY']",E011,625
571,571,19,False,False,a3b37ce0-a135-11e9-9cda-0a87ae2ba916,True,41.867491,-87.63219,Delano Ct & Roosevelt Rd,,"['CREDITCARD', 'TRANSITCARD', 'KEY']",KA1706005007,626
572,572,19,False,False,a3b3820c-a135-11e9-9cda-0a87ae2ba916,True,41.894877,-87.632326,LaSalle Dr & Huron St,,"['CREDITCARD', 'TRANSITCARD', 'KEY']",KP1705001026,627
573,573,23,False,False,a3b38728-a135-11e9-9cda-0a87ae2ba916,True,41.91461,-87.667968,Walsh Park,,"['CREDITCARD', 'TRANSITCARD', 'KEY']",18067,628
574,574,15,False,False,a3b38c3f-a135-11e9-9cda-0a87ae2ba916,True,41.96108,-87.73569,Kildare Ave & Montrose Ave,,"['CREDITCARD', 'TRANSITCARD', 'KEY']",KA1706005015,630
575,575,19,False,False,a3b3915a-a135-11e9-9cda-0a87ae2ba916,True,41.877618,-87.673895,Malcolm X College,,"['CREDITCARD', 'TRANSITCARD', 'KEY']",631,631
576,576,15,False,False,a3b3968b-a135-11e9-9cda-0a87ae2ba916,True,41.94454,-87.654678,Clark St & Newport St,,"['CREDITCARD', 'TRANSITCARD', 'KEY']",632,632
577,577,11,False,False,a3b39bb0-a135-11e9-9cda-0a87ae2ba916,True,41.895748,-87.620104,Fairbanks St & Superior St,,"['CREDITCARD', 'TRANSITCARD', 'KEY']",18003,635
578,578,11,False,False,a3b3a0c8-a135-11e9-9cda-0a87ae2ba916,True,41.890028,-87.636618,Orleans St & Hubbard St,,"['CREDITCARD', 'TRANSITCARD', 'KEY']",636,636
579,579,16,False,False,a3b419d9-a135-11e9-9cda-0a87ae2ba916,True,41.895634,-87.672069,Wood St & Chicago Ave (*),,"['CREDITCARD', 'TRANSITCARD', 'KEY']",637,637
580,580,23,False,False,a3b41f78-a135-11e9-9cda-0a87ae2ba916,True,41.87811603010527,-87.63983845710754,Clinton St & Jackson Blvd,,"['CREDITCARD', 'TRANSITCARD', 'KEY']",638,638
581,581,15,False,False,a3b424f6-a135-11e9-9cda-0a87ae2ba916,True,41.965845,-87.645361,Lakefront Trail & Wilson Ave,,"['CREDITCARD', 'TRANSITCARD', 'KEY']",639,639
582,582,11,False,False,a3b42a3e-a135-11e9-9cda-0a87ae2ba916,True,41.949923,-87.713949,Bernard St & Elston Ave,,"['CREDITCARD', 'TRANSITCARD', 'KEY']",18016,640
583,583,11,False,False,a3b42f5f-a135-11e9-9cda-0a87ae2ba916,True,41.914166,-87.716755,Central Park Ave & Bloomingdale Ave,,"['CREDITCARD', 'TRANSITCARD', 'KEY']",18017,641
584,584,7,False,False,a3b43478-a135-11e9-9cda-0a87ae2ba916,True,41.894745,-87.756895,Latrobe Ave & Chicago Ave,,"['CREDITCARD', 'TRANSITCARD', 'KEY']",642,642
585,585,16,False,False,a3b4399a-a135-11e9-9cda-0a87ae2ba916,True,41.892048,-87.689397,Smith Park (*),,"['CREDITCARD', 'TRANSITCARD', 'KEY']",643,643
586,586,12,False,False,a3b43eb7-a135-11e9-9cda-0a87ae2ba916,True,41.868563,-87.686234,Western Ave & Fillmore St (*),,"['CREDITCARD', 'TRANSITCARD', 'KEY']",644,644
587,587,11,False,False,a3b443ce-a135-11e9-9cda-0a87ae2ba916,True,41.826712,-87.683144,Archer (Damen) Ave & 37th St,,"['CREDITCARD', 'TRANSITCARD', 'KEY']",18022,645
588,588,11,False,False,a3b4497a-a135-11e9-9cda-0a87ae2ba916,True,41.796642,-87.625923,State St & 54th St,,"['CREDITCARD', 'TRANSITCARD', 'KEY']",646,646
589,589,7,False,False,a3b44eba-a135-11e9-9cda-0a87ae2ba916,True,41.786691,-87.655859,Elizabeth St & 59th St,,"['CREDITCARD', 'TRANSITCARD', 'KEY']",647,647
590,590,7,False,False,a3b453f2-a135-11e9-9cda-0a87ae2ba916,True,41.77987,-87.650919,Carpenter St & 63rd St,,"['CREDITCARD', 'TRANSITCARD', 'KEY']",18025,648
591,591,12,False,False,a3b4590f-a135-11e9-9cda-0a87ae2ba916,True,41.779835,-87.634774,Stewart Ave & 63rd St (*),,"['CREDITCARD', 'TRANSITCARD', 'KEY']",649,649
592,592,12,False,False,a3b45e26-a135-11e9-9cda-0a87ae2ba916,True,41.768898,-87.635876,Eggleston Ave & 69th St (*),,"['CREDITCARD', 'TRANSITCARD', 'KEY']",650,650
593,593,7,False,False,a3b4633a-a135-11e9-9cda-0a87ae2ba916,True,41.765286,-87.621748,Michigan Ave & 71st St,,"['CREDITCARD', 'TRANSITCARD', 'KEY']",651,651
594,594,11,False,False,a3b46866-a135-11e9-9cda-0a87ae2ba916,True,41.766,-87.611726,Rhodes Ave & 71st St,,"['CREDITCARD', 'TRANSITCARD', 'KEY']",652,652
595,595,11,False,False,a3b46d7b-a135-11e9-9cda-0a87ae2ba916,True,41.780595,-87.584846,Cornell Dr & Hayes Dr,,"['CREDITCARD', 'TRANSITCARD', 'KEY']",653,653
596,596,12,False,False,a3b4728f-a135-11e9-9cda-0a87ae2ba916,True,41.883073,-87.656952,Racine Ave & Washington Blvd (*),,"['CREDITCARD', 'TRANSITCARD', 'KEY']",654,654
597,597,15,False,False,a3b477ac-a135-11e9-9cda-0a87ae2ba916,True,41.979851,-87.681932,Hoyne Ave & Balmoral Ave,,"['CREDITCARD', 'TRANSITCARD', 'KEY']",655,655
598,598,16,False,False,a3b47cbc-a135-11e9-9cda-0a87ae2ba916,True,41.885951,-87.677009,Damen Ave & Walnut (Lake) St (*),,"['CREDITCARD', 'TRANSITCARD', 'KEY']",KA17018054,656
599,599,15,False,False,a3b481e1-a135-11e9-9cda-0a87ae2ba916,True,41.899181,-87.6722,Wood St & Augusta Blvd,,"['CREDITCARD', 'TRANSITCARD', 'KEY']",657,657
600,600,16,False,False,a3b486f2-a135-11e9-9cda-0a87ae2ba916,True,41.902997,-87.683825,Leavitt St & Division St (*),,"['CREDITCARD', 'TRANSITCARD', 'KEY']",658,658
601,601,15,False,False,a3b48c07-a135-11e9-9cda-0a87ae2ba916,True,41.895501,-87.682017,Leavitt St & Chicago Ave,,"['CREDITCARD', 'TRANSITCARD', 'KEY']",18058,659
602,602,15,False,False,a3b49122-a135-11e9-9cda-0a87ae2ba916,True,42.004583,-87.661406,Sheridan Rd & Columbia Ave,,"['CREDITCARD', 'TRANSITCARD', 'KEY']",660,660
603,603,15,False,False,a3b4963f-a135-11e9-9cda-0a87ae2ba916,True,42.057044,-87.686554,Evanston Civic Center,35.0,"['CREDITCARD', 'TRANSITCARD', 'KEY']",661,661
